stop_id,stop_name,stop_lat,stop_lon,location_type,parent_station,wheelchair_boarding,platform_code
08236:04001:0:1,Pinache Großglattbacher Straße,47.919597,8.934302,,,,
08236:04001:0:2,Pinache Großglattbacher Straße,47.919597,8.934302,,,,
08236:04002:0.2,Großglattbach Panoramastraße,0.000000,0.000000,,,,
08236:04002:0:1,Großglattbach Panoramastraße,47.919597,8.934302,,,,
08236:04003:0:1,Großglattbach Iptinger Weg,47.919597,8.934302,,,,
08236:04005:0:1,Großglattbach Fronackerweg Bstg 1,47.919597,8.934302,,,,Bstg 1
08236:04006:0:1,Großglattbach Marsstraße,47.919597,8.934302,,,,
08236:04007:0:1,Großglattbach Galileistraße,47.919597,8.934302,,,,
08236:04009:0:1,Pinache Friedhof,47.919597,8.934302,,,,
08236:04010:0:1,Wiernsheim AZP,47.919597,8.934302,,,,
08236:04011:0:1,Wiernsheim Apotheke,47.919597,8.934302,,,,
DE:08235:3040:0:3,Heumaden (Calw): Waldenser Str Bstg 3,47.919597,8.934302,,,,Bstg 3
DE:08235:3045:0:3,Heumaden (Calw) :Hagebuttenw. Bstg 3,47.919597,8.934302,,,,Bstg 3
at:48:466:0:6,Bregenz Hafen Bahnhof,47.506529,9.747448,,,,
ch:23001:18880:90,Klingnau,47.581920,8.249409,,,,
ch:23001:19169:90,Rietheim,47.600750,8.277302,,,,
ch:23001:19182:90,"Rekingen, Bahnhof",47.570194,8.327185,,,,
ch:23001:19304:90,"Mellikon, Bahnhof",47.568442,8.352751,,,,
ch:23001:19464:90,Koblenz Dorf,47.609453,8.240156,,,,
ch:23001:20019:90,Baden,47.476489,8.307314,,,,
ch:23001:20020:90,"Kaiserstuhl AG, Bahnhof",47.566588,8.418822,,,,
ch:23001:20198:90,Brugg AG,47.480866,8.209065,,,,
ch:23001:20200:90,"Döttingen, Bahnhof",47.575685,8.256344,,,,
ch:23001:20201:90,Siggenthal-Würenlingen,47.517978,8.240084,,,,
ch:23001:20202:90,"Bad Zurzach, Bahnhof",47.588392,8.295672,,,,
ch:23001:20204:90,"Koblenz, Bahnhof",47.600344,8.227176,,,,
ch:23001:20513:90,"Rümikon, Bahnhof",47.565272,8.374140,,,,
ch:23001:817:90,"Turgi, Bahnhof",47.491860,8.253460,,,,
ch:23001:818:90,Wettingen,47.459710,8.315543,,,,
ch:23001:819:90,Killwangen-Spreitenbach,47.433490,8.354341,,,,
ch:23001:821:90,Neuenhof,47.450836,8.331030,,,,
ch:23002:20460,"Herisau, Bahnhof",47.390171,9.276803,,,,
ch:23002:20460:90,"Herisau, Bahnhof",47.390171,9.276803,,,,
ch:23005:102:1:3,"Basel, Universitätsspital D",47.561132,7.586497,,,,D
ch:23005:102:1:4,"Basel, Universitätsspital A",47.561793,7.585347,,,,A
ch:23005:103:1:2,"Basel, Rankstrasse",47.560750,7.615261,,,,
ch:23005:103:1:3,"Basel, Rankstrasse",47.561411,7.616186,,,,
ch:23005:103:2:1,"Basel, Rankstrasse",47.561029,7.616959,,,,
ch:23005:105:1:1,"Basel, Rheingasse",47.561090,7.591968,,,,
ch:23005:105:1:2,"Basel, Rheingasse",47.560944,7.591303,,,,
ch:23005:108:1:1,"Basel, Rosengartenweg",47.558744,7.603089,,,,
ch:23005:108:1:2,"Basel, Rosengartenweg",47.558811,7.603484,,,,
ch:23005:111:1:2,"Basel, Novartis Campus",47.570733,7.581619,,,,
ch:23005:112:1:1,"Basel, Sportzentrum Rankhof",47.561060,7.621478,,,,
ch:23005:112:1:2,"Basel, Sportzentrum Rankhof",47.560926,7.620867,,,,
ch:23005:114:1:2,"Basel, Schifflände C",47.559393,7.587243,,,,C
ch:23005:114:4:10,"Basel, Schifflände E",47.559847,7.588159,,,,E
ch:23005:114:4:3,"Basel, Schifflände F",47.559671,7.588375,,,,F
ch:23005:116:1:2,"Basel, Schützenhaus B",47.553597,7.576921,,,,B
ch:23005:116:2:3,"Basel, Schützenhaus E",47.553021,7.576957,,,,E
ch:23005:116:2:4,"Basel, Schützenhaus F",47.552839,7.576544,,,,F
ch:23005:119:1:1,"Basel, Tinguely Museum B",47.559750,7.612333,,,,B
ch:23005:119:2:2,"Basel, Tinguely Museum C",47.559799,7.611767,,,,C
ch:23005:11:1:1,"Basel, Bernerring",47.548928,7.569546,,,,
ch:23005:11:1:2,"Basel, Bernerring",47.549147,7.569824,,,,
ch:23005:123:1:3,"Basel, Strassburgerallee",47.563654,7.571396,,,,
ch:23005:123:1:4,"Basel, Strassburgerallee",47.563102,7.570534,,,,
ch:23005:129:1:3,"Basel, Thomaskirche A",47.564333,7.562341,,,,A
ch:23005:129:1:4,"Basel, Thomaskirche B",47.564339,7.562548,,,,B
ch:23005:132:1:4,"Basel, Voltaplatz A",47.570776,7.577038,,,,A
ch:23005:137:1:3,"Basel, Wettsteinplatz",47.559186,7.598588,,,,
ch:23005:137:1:4,"Basel, Wettsteinplatz",47.559350,7.598355,,,,
ch:23005:139:1:1,"Basel, Wiesenplatz",47.576770,7.591438,,ch:23005:139_Parent,,
ch:23005:139:1:2,"Basel, Wiesenplatz",47.576515,7.591249,,ch:23005:139_Parent,,
ch:23005:139:1:3,"Basel, Wiesenplatz",47.577267,7.592031,,ch:23005:139_Parent,,
ch:23005:139:1:92,"Basel, Wiesenplatz",47.577303,7.592094,,ch:23005:139_Parent,,
ch:23005:139:1:96,"Basel, Wiesenplatz",47.577079,7.591752,,ch:23005:139_Parent,,
ch:23005:139_Parent,"Basel, Wiesenplatz",47.576733,7.591375,1,,,
ch:23005:13:1:2,"Basel, Birmannsgasse",47.557598,7.575133,,,,
ch:23005:145:1:1,"Basel, Zoo Bachletten",47.550826,7.580550,,,,
ch:23005:145:1:2,"Basel, Zoo Bachletten",47.551117,7.579957,,,,
ch:23005:14:1:1,"Basel, Bläsiring",47.568527,7.590450,,,,
ch:23005:14:1:2,"Basel, Bläsiring",47.568703,7.590351,,,,
ch:23005:15:1:1,"Basel, Blotzheimerstrasse",47.561708,7.569187,,,,
ch:23005:15:1:2,"Basel, Blotzheimerstrasse",47.561617,7.568441,,,,
ch:23005:16:1:2,"Basel, Brausebad D",47.555519,7.575780,,,,D
ch:23005:1:4:1,"Basel, Aeschenplatz A",47.551087,7.594618,,,,A
ch:23005:1:4:2,"Basel, Aeschenplatz B",47.550717,7.593998,,,,B
ch:23005:22:1:1,"Basel, Bundesplatz",47.551232,7.574451,,,,
ch:23005:22:1:2,"Basel, Bundesplatz",47.551469,7.574801,,,,
ch:23005:24:2:4,"Basel, Burgfelderplatz",47.562502,7.573786,,,,
ch:23005:26:1:1,"Basel, Ciba",47.573642,7.590342,,,,
ch:23005:26:1:2,"Basel, Ciba",47.573315,7.590198,,,,
ch:23005:27:1:1,"Basel, Claraplatz",47.562078,7.592893,,ch:23005:27_Parent,,
ch:23005:27:1:2,"Basel, Claraplatz",47.561787,7.593198,,ch:23005:27_Parent,,
ch:23005:27:2:6,"Basel, Claraplatz",47.561357,7.593648,,ch:23005:27_Parent,,
ch:23005:27:3:11,"Basel, Claraplatz",47.561781,7.594142,,ch:23005:27_Parent,,
ch:23005:27:3:5,"Basel, Claraplatz",47.561732,7.593971,,ch:23005:27_Parent,,
ch:23005:27_Parent,"Basel, Claraplatz",47.561684,7.593423,1,,,
ch:23005:300:10:85,Basel SBB,47.546376,7.589372,,ch:23005:300_Parent,,
ch:23005:300:4:71,Basel SBB,47.547018,7.590980,,ch:23005:300_Parent,,
ch:23005:300:4:72,Basel SBB,47.546946,7.590908,,ch:23005:300_Parent,,
ch:23005:300:5:73,Basel SBB,47.546879,7.590899,,ch:23005:300_Parent,,
ch:23005:300:5:74,Basel SBB,47.546818,7.590755,,ch:23005:300_Parent,,
ch:23005:300:6:75,Basel SBB,47.547061,7.589893,,ch:23005:300_Parent,,
ch:23005:300:6:76,Basel SBB,47.546982,7.589830,,ch:23005:300_Parent,,
ch:23005:300:7:77,Basel SBB,47.546921,7.589785,,ch:23005:300_Parent,,
ch:23005:300:7:78,Basel SBB,47.546812,7.589740,,ch:23005:300_Parent,,
ch:23005:300:8:79,Basel SBB,47.546782,7.589668,,ch:23005:300_Parent,,
ch:23005:300:8:80,Basel SBB,47.546679,7.589614,,ch:23005:300_Parent,,
ch:23005:300:9:81,Basel SBB,47.546636,7.589587,,ch:23005:300_Parent,,
ch:23005:300:9:82,Basel SBB,47.546551,7.589515,,ch:23005:300_Parent,,
ch:23005:300_Parent,Basel SBB,47.547394,7.589354,1,,,
ch:23005:33:1:1,"Basel, Dreirosenbrücke D",47.570509,7.590234,,,,D
ch:23005:33:1:2,"Basel, Dreirosenbrücke C",47.570958,7.590108,,,,C
ch:23005:33:1:4,"Basel, Dreirosenbrücke A",47.570697,7.589821,,,,A
ch:23005:37:1:1,"Basel, Feldbergstrasse",47.566103,7.591106,,,,
ch:23005:37:1:2,"Basel, Feldbergstrasse",47.566485,7.590908,,,,
ch:23005:402:1:2,"Basel, Weil am Rhein Grenze",47.588979,7.593037,,,,
ch:23005:403:1:1,"Basel, Bachgraben C",47.563672,7.557491,,,,C
ch:23005:403:1:2,"Basel, Bachgraben B",47.563569,7.557257,,,,B
ch:23005:403:1:3,"Basel, Bachgraben A",47.563339,7.556763,,,,A
ch:23005:409:1:1,"Basel, Otterbach Grenze",47.579775,7.603772,,,,
ch:23005:409:1:2,"Basel, Otterbach Grenze",47.580527,7.604230,,,,
ch:23005:42:1:2,"Basel, Bahnhof St.Johann C",47.570600,7.572897,,,,C
ch:23005:442:1:1,"Basel, Belforterstrasse",47.565175,7.559305,,,,
ch:23005:442:1:2,"Basel, Belforterstrasse",47.565157,7.559620,,,,
ch:23005:472:1:1,"Basel, Ensisheimerstrasse",47.563230,7.566015,,,,
ch:23005:472:1:2,"Basel, Ensisheimerstrasse",47.563060,7.566177,,,,
ch:23005:4:1:1,"Basel, Allmendstrasse",47.562393,7.626445,,,,
ch:23005:4:1:2,"Basel, Allmendstrasse",47.562417,7.626104,,,,
ch:23005:507:0:1,"Basel, Depot Wiesenplatz",47.577163,7.591833,,,,
ch:23005:511:0:10,"Basel, Garage Rank",47.561181,7.616142,,,,
ch:23005:52:1:2,"Basel, Hegenheimerstrasse",47.560423,7.574352,,,,
ch:23005:58:1:1,"Basel, Hoffmann-La Roche",47.559083,7.607886,,,,
ch:23005:58:1:2,"Basel, Hoffmann-La Roche",47.559102,7.607320,,,,
ch:23005:62:1:2,"Basel, Inselstrasse",47.577176,7.589506,,,,
ch:23005:69:1:2,"Basel, Kannenfeldplatz D",47.565685,7.573489,,,,D
ch:23005:69:1:3,"Basel, Kannenfeldplatz C",47.565333,7.573678,,,,C
ch:23005:69:1:6,"Basel, Kannenfeldplatz F",47.565594,7.573067,,,,F
ch:23005:6:2:4,"Basel, Badischer Bahnhof F",47.566327,7.607383,,ch:23005:6_Parent,,F
ch:23005:6:3:5,"Basel, Badischer Bahnhof A",47.566776,7.606754,,ch:23005:6_Parent,,A
ch:23005:6:4:2,"Basel, Badischer Bahnhof",47.566485,7.607230,,ch:23005:6_Parent,,
ch:23005:6:4:3,"Basel, Badischer Bahnhof",47.566485,7.607230,,ch:23005:6_Parent,,
ch:23005:6:5:7,"Basel, Badischer Bahnhof B",47.567079,7.606943,,ch:23005:6_Parent,,B
ch:23005:6:6:4,"Basel, Badischer Bahnhof",47.566485,7.607230,,ch:23005:6_Parent,,
ch:23005:6:6:5,"Basel, Badischer Bahnhof",47.566485,7.607230,,ch:23005:6_Parent,,
ch:23005:6:7:6,"Basel, Badischer Bahnhof",47.566485,7.607230,,ch:23005:6_Parent,,
ch:23005:6:7:7,"Basel, Badischer Bahnhof",47.566485,7.607230,,ch:23005:6_Parent,,
ch:23005:6:8:8,"Basel, Badischer Bahnhof",47.566485,7.607230,,ch:23005:6_Parent,,
ch:23005:6:8:9,"Basel, Badischer Bahnhof",47.566485,7.607230,,ch:23005:6_Parent,,
ch:23005:6:9:10,"Basel, Badischer Bahnhof",47.566485,7.607230,,ch:23005:6_Parent,,
ch:23005:6:9:11,"Basel, Badischer Bahnhof",47.566485,7.607230,,ch:23005:6_Parent,,
ch:23005:6_Parent,"Basel, Badischer Bahnhof",47.566485,7.607230,1,,,
ch:23005:7056:1:1,"Basel, Kleinhüningeranlage",47.583987,7.593908,,,,
ch:23005:7056:1:2,"Basel, Kleinhüningeranlage",47.583587,7.593746,,,,
ch:23005:70:1:1,"Basel, Kinderspital UKBB",47.563084,7.583066,,,,
ch:23005:70:1:2,"Basel, Kinderspital UKBB",47.563272,7.582958,,,,
ch:23005:72:1:1,"Basel, Kaserne",47.563915,7.591537,,,,
ch:23005:72:1:2,"Basel, Kaserne",47.563539,7.591635,,,,
ch:23005:74:1:1,"Basel, Kleinhüningen",47.581290,7.592156,,,,
ch:23005:74:1:3,"Basel, Kleinhüningen",47.581205,7.592130,,,,
ch:23005:74:1:5,"Basel, Kleinhüningen",47.580430,7.592812,,,,
ch:23005:78:1:1,"Basel, Im langen Loh",47.546157,7.559602,,,,
ch:23005:78:1:2,"Basel, Im langen Loh",47.546212,7.559826,,,,
ch:23005:79:1:1,"Basel, Laupenring",47.548207,7.568082,,,,
ch:23005:79:1:2,"Basel, Laupenring",47.548074,7.567650,,,,
ch:23005:7:1:20,"Basel, Bahnhof SBB E",47.548213,7.590072,,,,E
ch:23005:7:2:61,"Basel, Bahnhof SBB J",47.548413,7.590674,,,,J
ch:23005:801:1:3,"Riehen, Bahnübergang C",47.581151,7.649182,,,,C
ch:23005:801:1:4,"Riehen, Bahnübergang D",47.581290,7.649415,,,,D
ch:23005:807:1:3,"Riehen, Friedhof am Hörnli B",47.566963,7.635931,,,,B
ch:23005:807:1:6,"Riehen, Friedhof am Hörnli A",47.566867,7.636165,,,,A
ch:23005:811:2:5,"Riehen, Habermatten",47.572782,7.629697,,,,
ch:23005:812:1:1,"Riehen, Hinter Gärten D",47.587034,7.655506,,,,D
ch:23005:812:1:2,"Riehen, Hinter Gärten C",47.587156,7.655640,,,,C
ch:23005:813:1:1,"Riehen, Hörnli Grenze",47.562478,7.633614,,,,
ch:23005:813:1:2,"Riehen, Hörnli Grenze",47.562527,7.633802,,,,
ch:23005:816:1:1,"Riehen, Lachenweg",47.575055,7.646442,,,,
ch:23005:816:1:2,"Riehen, Lachenweg",47.575212,7.646415,,,,
ch:23005:817:1:1,"Riehen, Lörracherstrasse",47.592523,7.653709,,,,
ch:23005:817:1:2,"Riehen, Lörracherstrasse",47.592239,7.653296,,,,
ch:23005:821:1:1,"Riehen, Morystrasse",47.574042,7.643037,,,,
ch:23005:821:1:2,"Riehen, Morystrasse",47.573958,7.643333,,,,
ch:23005:822:1:1,"Riehen, Mühlestieg",47.578357,7.647825,,,,
ch:23005:822:1:2,"Riehen, Mühlestieg",47.578109,7.647681,,,,
ch:23005:824:1:1,"Riehen, Otto Wenk-Platz",47.568709,7.637396,,,,
ch:23005:824:1:4,"Riehen, Otto Wenk-Platz",47.568503,7.637180,,,,
ch:23005:826:1:2,"Riehen, Bahnhof",47.583817,7.651921,,ch:23005:826_Parent,,
ch:23005:826:1:3,"Riehen, Bahnhof",47.583653,7.651841,,ch:23005:826_Parent,,
ch:23005:826:2:1,"Riehen, Bahnhof",47.583793,7.651903,,ch:23005:826_Parent,,
ch:23005:826:3:2,"Riehen, Bahnhof",47.583793,7.651903,,ch:23005:826_Parent,,
ch:23005:826_Parent,"Riehen, Bahnhof",47.583793,7.651903,1,,,
ch:23005:827:1:1,"Riehen, Bahnhof Niederholz",47.570364,7.632859,,ch:23005:827_Parent,,
ch:23005:827:1:2,"Riehen, Bahnhof Niederholz",47.570206,7.633030,,ch:23005:827_Parent,,
ch:23005:827:50:50,"Riehen, Bahnhof Niederholz",47.570249,7.632967,,ch:23005:827_Parent,,
ch:23005:827_Parent,"Riehen, Bahnhof Niederholz",47.570249,7.632967,1,,,
ch:23005:834:1:1,"Riehen, Wasserstelzen",47.572673,7.639067,,,,
ch:23005:834:1:2,"Riehen, Wasserstelzen",47.572643,7.639588,,,,
ch:23005:835:1:4,"Riehen, Weilstrasse C",47.589761,7.651697,,ch:23005:835_Parent,,C
ch:23005:835:2:5,"Riehen, Weilstrasse A",47.589846,7.651293,,ch:23005:835_Parent,,A
ch:23005:835:2:6,"Riehen, Weilstrasse B",47.589803,7.651553,,ch:23005:835_Parent,,B
ch:23005:835_Parent,"Riehen, Weilstrasse",47.589452,7.651885,1,,,
ch:23005:842:1:1,"Riehen, Bluttrainweg",47.570315,7.637935,,,,
ch:23005:842:1:2,"Riehen, Bluttrainweg",47.570570,7.638033,,,,
ch:23005:843:1:1,"Riehen, Webergässchen",47.584823,7.651266,,,,
ch:23005:844:1:1,"Riehen, Schmiedgasse",47.584017,7.653170,,,,
ch:23005:844:1:2,"Riehen, Schmiedgasse",47.583859,7.653233,,,,
ch:23005:860:1:1,"Riehen, In der Au",47.585041,7.668432,,,,
ch:23005:860:1:2,"Riehen, In der Au",47.584962,7.668666,,,,
ch:23005:861:1:1,"Riehen, Hohlweg",47.587016,7.660581,,,,
ch:23005:861:1:2,"Riehen, Hohlweg",47.587004,7.660105,,,,
ch:23005:862:1:1,"Riehen, Im Schlipf Bstg 1",47.592433,7.644627,,,,Bstg 1
ch:23005:862:1:2,"Riehen, Im Schlipf Bstg 2",47.592384,7.644537,,,,Bstg 2
ch:23005:864:1:1,"Riehen, Hinterengeli",47.586525,7.663114,,,,
ch:23005:864:1:2,"Riehen, Hinterengeli",47.586471,7.663420,,,,
ch:23005:865:1:1,"Riehen, Inzlinger Zoll",47.585332,7.671100,,,,
ch:23005:865:1:2,"Riehen, Inzlinger Zoll",47.585332,7.671334,,,,
ch:23005:86:1:1,"Basel, Markthalle",47.548922,7.585761,,,,
ch:23005:86:1:2,"Basel, Markthalle",47.548892,7.586353,,,,
ch:23005:87:1:1,"Basel, Marktplatz",47.558520,7.587341,,,,
ch:23005:87:1:2,"Basel, Marktplatz",47.557816,7.587764,,,,
ch:23005:8:2:3,"Basel, Bankverein",47.553554,7.592345,,,,
ch:23005:8:2:4,"Basel, Bankverein",47.552979,7.592866,,,,
ch:23005:90:1:1,"Basel, Metzerstrasse",47.564181,7.578044,,,,
ch:23005:90:1:2,"Basel, Metzerstrasse",47.564127,7.578493,,,,
ch:23005:98:1:1,"Basel, Neubad",47.546928,7.565135,,,,
ch:23005:98:1:2,"Basel, Neubad",47.546873,7.564677,,,,
ch:23005:99:1:1,"Basel, Neuweilerstrasse",47.545739,7.557356,,,,
ch:23005:9:1:1,"Basel, Barfüsserplatz",47.554906,7.589336,,,,
ch:23005:9:1:2,"Basel, Barfüsserplatz",47.554282,7.588977,,,,
ch:23012:19626:90,"Ebikon, Bahnhof",47.084325,8.342061,,,,
ch:23012:20041:90,"Luzern, Bahnhof",47.050078,8.310719,,,,
ch:23012:20424:90,Gisikon-Root,47.121215,8.394568,,,,
ch:23016:19049:90,"St. Gallen, Bahnhof Winkeln",47.403925,9.300842,,,,
ch:23016:19054:90,"St. Gallen, Bahnhof Bruggen",47.407202,9.329642,,,,
ch:23016:20276:90,"Wil SG, Bahnhof",47.462328,9.040923,,,,
ch:23016:20293:90,"Uzwil, Bahnhof",47.436443,9.130971,,,,
ch:23016:20294:90,"Gossau SG, Bahnhof",47.411756,9.253132,,,,
ch:23016:20297:90,"Flawil, Bahnhof",47.415190,9.189765,,,,
ch:23016:20307:90,St. Gallen,47.423208,9.369347,,,,
ch:23016:6984:20,"Rorschach, Hafen (See)",47.478936,9.493656,,,,
ch:23017:12914:90,Beringen Badischer Bahnhof,47.694771,8.572578,,,,
ch:23017:27057:90,Herblingen,47.717120,8.664395,,,,
ch:23017:28218:20,Stein am Rhein (Schifflände),47.660083,8.856445,,,,
ch:23017:31253,"Stein am Rhein, Rathaus",47.659061,8.859931,,,,
ch:23017:31253:0:1,"Stein am Rhein, Rathaus",47.659061,8.859931,,,,
ch:23017:31254,"Stein am Rhein, Untertor",47.661469,8.857227,,,,
ch:23017:31254:0:1,"Stein am Rhein, Untertor",47.661469,8.857227,,,,
ch:23017:31254:0:2,"Stein am Rhein, Untertor",47.661469,8.857227,,,,
ch:23017:31255:0:1,"Stein am Rhein, Strandbad",47.664192,8.850220,,,,
ch:23017:31255:0:2,"Stein am Rhein, Strandbad",47.664192,8.850220,,,,
ch:23017:31988:0:1,"Stein am Rhein, Schule",47.659430,8.861341,,,,
ch:23017:3722,"Stein am Rhein, Bahnhof",47.655769,8.855664,,,,
ch:23017:3722:0:1,"Stein am Rhein, Bahnhof",47.655769,8.855664,,,,
ch:23017:43060,Stein am Rhein Altenheim,47.658795,8.866659,,,,
ch:23017:43061,Stein am Rhein Schule,47.659406,8.861494,,,,
ch:23017:43062,Stein am Rhein Grenzstein,47.660120,8.874367,,,,
ch:23017:50091:90,Neuhausen,47.683058,8.625147,,,,
ch:23017:51001,"Neuhausen, Rheinfall",47.679647,8.617467,,,,
ch:23017:53520:90,"Beringen, Beringerfeld",47.695787,8.592026,,,,
ch:23017:53999:90,Trasadingen Bahnhof,47.662056,8.432728,,,,
ch:23017:55720:90,Schaffhausen,47.698683,8.632756,,,,
ch:23017:55721:90,Neuhausen Bad. Bahnhof,47.682368,8.612607,,,,
ch:23017:55724:90,"Neunkirch, Bahnhof",47.689359,8.495125,,,,
ch:23017:55725:90,Wilchingen-Hallau,47.678975,8.462687,,,,
ch:23017:55901:90,Thayngen,47.745488,8.704370,,,,
ch:23017:6985:90,Schaffhausen Schifflände,47.695273,8.640922,,,,
ch:23017:nvbw_vhb_2159:0:1,Stein am Rhein Chlosterhof,47.659472,8.861880,,,,
ch:23021:18890:2,"Kreuzlingen, Bahnhof Hafen",47.649476,9.181842,,,,
ch:23021:19005:90,"Tägerwilen Dorf, Bahnhof",47.653918,9.139657,,,,
ch:23021:19083:90,Siegershausen,47.610931,9.168116,,,,
ch:23021:19383:90,"Lengwil, Bahnhof",47.625700,9.190125,,,,
ch:23021:19474:90,Kehlhof,47.572237,9.169724,,,,
ch:23021:19523:90,Guntershausen,47.474145,8.917198,,,,
ch:23021:19778:90,Berg (TG),47.582169,9.174566,,,,
ch:23021:19874:90,"Kreuzlingen, Bahnhof Bernrain",47.642147,9.163517,,,,
ch:23021:20254:90,"Weinfelden, Bahnhof",47.566200,9.106294,,,,
ch:23021:20262:90,"Aadorf, Bahnhof",47.488030,8.903077,,,,
ch:23021:20263:90,"Frauenfeld, Bahnhof",47.558277,8.896474,,,,
ch:23021:20264:90,"Kreuzlingen, Bahnhof",47.652701,9.169212,,,,
ch:23021:20463:90,"Sirnach, Bahnhof",47.461897,9.000553,,,,
ch:23021:20465:90,Eschlikon TG,47.461435,8.958548,,,,
ch:23021:20536:90,"Amriswil, Bahnhof",47.550523,9.302261,,,,
ch:23021:20539:90,"Romanshorn, Bahnhof",47.565460,9.379525,,,,
ch:23021:20540:20,Romanshorn (See),47.565212,9.380235,,,,
ch:23021:20541,"Romanshorn, Autoquai",47.564709,9.381080,,,,
ch:23021:24948,"Kreuzlingen, Blaues-Haus-Platz",47.642940,9.183836,,,,
ch:23021:24949,"Kreuzlingen, Breite",47.641711,9.189586,,,,
ch:23021:24954,"Kreuzlingen, Zihlstrasse",47.639659,9.201443,,,,
ch:23021:24979,"Landschlacht, Vorderdorf",47.626390,9.249396,,,,
ch:23021:27476,"Kreuzlingen, Hauptzoll",47.654934,9.173389,,,,
ch:23021:27477,"Kreuzlingen, Helvetiaplatz",47.653083,9.173533,,,,
ch:23021:27478,"Kreuzlingen, Sonnenweg",47.649391,9.174674,,,,
ch:23021:27496,"Kreuzlingen, Seepark",47.640773,9.195964,,,,
ch:23021:27497,"Scherzingen, Kirche",47.632105,9.223237,,,,
ch:23021:27524,"Münsterlingen, Nonnenpförtli",47.631651,9.233882,,,,
ch:23021:3745,"Kreuzlingen, Bärenplatz",47.647328,9.175707,,,,
ch:23021:3746,"Kreuzlingen, Seminar",47.644955,9.179093,,,,
ch:23021:3747,"Kreuzlingen, Kurzrickenbach",47.640077,9.194257,,,,
ch:23021:3748,"Bottighofen, Post",47.639690,9.207839,,,,
ch:23021:3749,"Münsterlingen, Spitaleingang",47.631046,9.236397,,,,
ch:23021:3750,"Scherzingen, Bäckerstübli",47.630301,9.226704,,,,
ch:23021:3753,"Landschlacht, Schulstrasse",47.627419,9.245676,,,,
ch:23021:60184:90,Berlingen (See),47.675486,9.017747,,,,
ch:23021:60292:90,Bottighofen (See),47.645010,9.211711,,,,
ch:23021:65186,Güttingen (See),47.613039,9.292506,,,,
ch:23021:67716,"Schlatt, Paradies (Fähre)",47.685320,8.674303,,,,
ch:23021:6982:90,Horn (See),47.496977,9.463212,,,,
ch:23021:6995:90,Mannenbach (See),47.675401,9.047320,,,,
ch:23021:6997:90,Ermatingen (See),47.675389,9.085498,,,,
ch:23021:6998:90,Gottlieben (Schifflände),47.664760,9.134474,,,,
ch:23021:7000:90,Kreuzlingen Hafen (See),47.652629,9.182426,,,,
ch:23021:7602:90,Altnau (See),47.625185,9.271027,,,,
ch:23021:7603:90,Uttwil (See),47.586925,9.345587,,,,
ch:23021:90006:90,Diessenhofen (Schifflände),47.690466,8.748854,,,,
ch:23021:99004:90,Steckborn (See),47.668705,8.981230,,,,
ch:23021:99005:90,Mammern (See),47.648677,8.916615,,,,
ch:23021:99030:90,Arbon (See),47.512481,9.440189,,,,
ch:23025:20011:90,Zug,47.173745,8.514996,,,,
ch:23025:20012:90,Baar,47.195627,8.523431,,,,
ch:23025:20237:90,Rotkreuz,47.142025,8.430374,,,,
ch:23026:1591:90,"Andelfingen, Bahnhof",47.593680,8.678112,,,,
ch:23026:1592:90,Marthalen,47.635095,8.653022,,,,
ch:23026:18893:90,Zürich Wipkingen,47.392998,8.529549,,,,
ch:23026:18899:90,Zürich Oerlikon,47.411646,8.543975,,,,
ch:23026:18899:91,Zürich Oerlikon,47.411877,8.543957,,,,
ch:23026:18931:90,Winterthur Grüze,47.498864,8.751010,,,,
ch:23026:19042:90,Stettbach,47.397206,8.596132,,,,
ch:23026:19110:90,Schottikon,47.500193,8.811521,,,,
ch:23026:19111:90,Schloss Laufen am Rheinfall,47.676544,8.614287,,,,
ch:23026:19131:90,Räterschen,47.498870,8.794875,,,,
ch:23026:19252:90,Niederglatt,47.487453,8.503417,,,,
ch:23026:19510:90,"Henggart, Bahnhof",47.564321,8.685110,,,,
ch:23026:19551:90,Glattbrugg,47.430725,8.558582,,,,
ch:23026:19904:90,Zürich Hardbrücke,47.385104,8.517394,,,,
ch:23026:19966:90,Glanzenberg,47.398909,8.420260,,,,
ch:23026:20022:90,"Bülach, Bahnhof",47.524063,8.536466,,,,
ch:23026:20038:90,Winterthur,47.500339,8.723576,,,,
ch:23026:20247:90,"Zürich, Flughafen",47.450356,8.562562,,,,
ch:23026:20249:90,"Oberglatt, Bahnhof",47.470271,8.510459,,,,
ch:23026:20250:90,Rümlang,47.454068,8.533007,,,,
ch:23026:20267:90,Dachsen,47.666944,8.613828,,,,
ch:23026:20270:90,"Uster, Bahnhof",47.350552,8.718590,,,,
ch:23026:20279:90,"Rafz, Bahnhof",47.603736,8.543661,,,,
ch:23026:20372:90,"Zweidlen, Bahnhof",47.570546,8.467960,,,,
ch:23026:20373:90,"Glattfelden, Bahnhof",47.548637,8.523880,,,,
ch:23026:20381:90,"Wetzikon ZH, Bahnhof",47.318328,8.791569,,,,
ch:23026:20383:90,"Schwerzenbach ZH, Bahnhof",47.384271,8.658753,,,,
ch:23026:20386:90,"Hüntwangen-Wil, Bahnhof",47.581254,8.513001,,,,
ch:23026:20525:90,Hettlingen,47.545436,8.694740,,,,
ch:23026:20526:90,"Elgg, Bahnhof",47.498658,8.863380,,,,
ch:23026:20530:90,"Dietikon, Bahnhof",47.405652,8.405321,,,,
ch:23026:20561:90,Dübendorf,47.400198,8.623368,,,,
ch:23026:28235:90,"Winterthur, Hegi Bahnhof",47.501601,8.769578,,,,
ch:23026:688,Zürich HB,47.378121,8.539322,,,,
ch:23026:688:90,Zürich HB,47.378310,8.540391,,,,
ch:23026:688:91,Zürich HB,47.377823,8.538981,,,,
ch:23026:689:90,Zürich Altstetten,47.391593,8.489016,,,,
ch:23026:690:90,"Zürich, Stadelhofen Bahnhof",47.366739,8.548557,,,,
ch:23026:704:90,Nänikon-Greifensee,47.369337,8.686439,,,,
ch:23026:737:90,"Thalwil, Bahnhof",47.295821,8.564538,,,,
ch:23026:763:90,Dietlikon,47.420181,8.619371,,,,
ch:23026:796:90,"Eglisau, Bahnhof",47.572315,8.516460,,,,
ch:23026:820:90,Schlieren,47.399365,8.447200,,,,
de:06411:11226:5:5,Darmstadt Ost,49.874438,8.674078,,,,
de:06411:11226:8:8,Darmstadt Ost,49.874281,8.674258,,,,
de:06411:11320:1:1,Darmstadt Süd,49.854588,8.637041,,,,
de:06411:11320:1:2,Darmstadt Süd,49.854547,8.636870,,,,
de:06411:11321:1:1,Darmstadt-Eberstadt,49.813693,8.625776,,,,
de:06411:11321:2:2,Darmstadt-Eberstadt,49.813704,8.625713,,,,
de:06411:16027:1:1,Darmstadt TU-Lichtwiese,49.860923,8.687607,,,,
de:06411:4720:3:3,Darmstadt Nord,49.892115,8.655124,,,,
de:06411:4720:3:7,Darmstadt Nord,49.892202,8.655097,,,,
de:06411:4720:4:8,Darmstadt Nord,49.892358,8.655043,,,,
de:06411:4734:41:5,Darmstadt Hbf,49.873042,8.629845,,de:06411:4734_Parent,,
de:06411:4734:41:6,Darmstadt Hbf,49.873031,8.629675,,de:06411:4734_Parent,,
de:06411:4734:42:10,Darmstadt Hbf,49.872996,8.629172,,de:06411:4734_Parent,,
de:06411:4734:42:9,Darmstadt Hbf,49.873008,8.629315,,de:06411:4734_Parent,,
de:06411:4734:43:11,Darmstadt Hbf,49.872990,8.629064,,de:06411:4734_Parent,,
de:06411:4734:43:12,Darmstadt Hbf,49.872979,8.628893,,de:06411:4734_Parent,,
de:06411:4734:44:7,Darmstadt Hbf,49.873025,8.629567,,de:06411:4734_Parent,,
de:06411:4734:44:8,Darmstadt Hbf,49.873013,8.629423,,de:06411:4734_Parent,,
de:06411:4734_Parent,Darmstadt Hbf,49.872504,8.629639,1,,,
de:06412:1008:11:1,Frankfurt-Höchst,50.102431,8.543257,,de:06412:1008_Parent,,
de:06412:1008:13:13,Frankfurt-Höchst,50.102794,8.542799,,de:06412:1008_Parent,,
de:06412:1008:16:16,Frankfurt-Höchst,50.102702,8.543176,,de:06412:1008_Parent,,
de:06412:1008:16:21,Frankfurt-Höchst,50.102794,8.543149,,de:06412:1008_Parent,,
de:06412:1008_Parent,Frankfurt-Höchst,50.102632,8.542367,1,,,
de:06412:10:10:15,Frankfurt (Main) Hbf,50.105577,8.662652,,de:06412:10_Parent,,
de:06412:10:11:8,Frankfurt (Main) Hbf,50.104914,8.661224,,de:06412:10_Parent,,
de:06412:10:12:10,Frankfurt (Main) Hbf,50.105721,8.662517,,de:06412:10_Parent,,
de:06412:10:12:13,Frankfurt (Main) Hbf,50.105629,8.662607,,de:06412:10_Parent,,
de:06412:10:13:7,Frankfurt (Main) Hbf,50.105790,8.662454,,de:06412:10_Parent,,
de:06412:10:15:2,Frankfurt (Main) Hbf,50.106141,8.662113,,de:06412:10_Parent,,
de:06412:10:15:3,Frankfurt (Main) Hbf,50.106049,8.662203,,de:06412:10_Parent,,
de:06412:10:16:12,Frankfurt (Main) Hbf,50.106205,8.662050,,de:06412:10_Parent,,
de:06412:10:16:16,Frankfurt (Main) Hbf,50.106291,8.661960,,de:06412:10_Parent,,
de:06412:10:17:18,Frankfurt (Main) Hbf,50.106343,8.661897,,de:06412:10_Parent,,
de:06412:10:17:20,Frankfurt (Main) Hbf,50.106435,8.661798,,de:06412:10_Parent,,
de:06412:10:19:25,Frankfurt (Main) Hbf,50.106723,8.661529,,de:06412:10_Parent,,
de:06412:10:20:26,Frankfurt (Main) Hbf,50.106775,8.661484,,de:06412:10_Parent,,
de:06412:10:21:9,Frankfurt (Main) Hbf,50.106908,8.661349,,de:06412:10_Parent,,
de:06412:10_Parent,Frankfurt (Main) Hbf,50.107144,8.663784,1,,,
de:06412:1830:4:7,Frankfurt-Niederrad,50.080992,8.637185,,,,
de:06412:1830:4:8,Frankfurt-Niederrad,50.080940,8.637014,,,,
de:06412:1830:5:10,Frankfurt-Niederrad,50.080871,8.636780,,,,
de:06412:2899:1:1,Frankfurt am Main - Stadion,50.067703,8.632127,,,,
de:06412:2899:2:5,Frankfurt am Main - Stadion,50.068072,8.632361,,,,
de:06412:2899:2:8,Frankfurt am Main - Stadion,50.067962,8.632433,,,,
de:06412:912:4:7,Frankfurt (Main) Süd,50.098904,8.685721,,,,
de:06412:912:4:8,Frankfurt (Main) Süd,50.098830,8.685801,,,,
de:06412:912:5:9,Frankfurt (Main) Süd,50.099077,8.686475,,,,
de:06414:6907:19:20,"Wiesbaden, Hauptbahnhof",50.071514,8.243112,,,,
de:06414:6907:19:21,"Wiesbaden, Hauptbahnhof",50.071514,8.243112,,,,
de:06414:6907:21:24,"Wiesbaden, Hauptbahnhof",50.071514,8.243112,,,,
de:06431:15027:0:1,"Hirschhorn, Ersheimer Straße",49.449470,8.903436,,,,
de:06431:1502:1:2,"Heppenheim, Bahnhof",49.641285,8.633448,,,,
de:06431:1502:3:Taxi,"Heppenheim, Bahnhof",49.641413,8.633942,,,,
de:06431:1502:4:1,"Heppenheim, Bahnhof",49.641297,8.633510,,,,
de:06431:15049:0:1,"Hirschhorn (Neckar), Kurmainzerstraße",49.451029,8.907874,,,,
de:06431:1505:0:RiO,"Heppenheim, Gießener Straße",49.632274,8.625057,,,,
de:06431:1505:0:RiW,"Heppenheim, Gießener Straße",49.632477,8.624932,,,,
de:06431:1506:0:RiN,"Heppenheim, Starkenburg-Gym.",49.636882,8.632972,,,,
de:06431:1506:0:RiS,"Heppenheim, Starkenburg-Gym.",49.636701,8.632765,,,,
de:06431:1510:2:RTaxi,"Heppenheim, Kreiskrankenhaus",49.628916,8.625039,,,,
de:06431:1511:0:RiNor,"Heppenheim, Graben",49.640704,8.643563,,,,
de:06431:1511:0:RiSue,"Heppenheim, Graben",49.640797,8.643230,,,,
de:06431:1528:0:RiN,"Heppenheim, Zollhausstraße/B3",49.638342,8.641083,,,,
de:06431:1528:0:RiS,"Heppenheim, Zollhausstraße/B3",49.638126,8.640949,,,,
de:06431:1529:0:1,"Heppenheim, Halber Mond",49.641838,8.638963,,,,
de:06431:1534:0:1,"Ober-Laudenbach, Finstertal",49.613477,8.669425,,,,
de:06431:1535:0:1,"Ober-Laudenbach, Turnhalle",49.614862,8.678875,,,,
de:06431:1536,"Ober-Laudenbach, Hasselhaag",49.619792,8.696599,,,,
de:06431:1590:1:2,"Hirschhorn, Bahnhof",49.442917,8.896088,,,,
de:06431:1590:2:1,"Hirschhorn, Bahnhof",49.443162,8.896519,,,,
de:06431:1590:3:1,"Hirschhorn, Bahnhof",49.442917,8.896160,,,,
de:06431:1592:0:Ri N,"Hirschhorn, Kreuz",49.447881,8.895360,,,,
de:06431:1592:0:Ri S,"Hirschhorn, Kreuz",49.447817,8.895262,,,,
de:06431:1593:0:Ri N,"Hirschhorn, Fabrik",49.470735,8.852556,,,,
de:06431:1593:0:Ri S,"Hirschhorn, Fabrik",49.470624,8.852583,,,,
de:06431:1595:0:Ri S,"Hirschhorn, Schlössel",49.450235,8.886072,,,,
de:06431:1596:0:Ri N,"Langenthal (Odw), Mitte",49.472492,8.848504,,,,
de:06431:1596:0:Ri S,"Langenthal (Odw), Mitte",49.472434,8.847705,,,,
de:06431:1599:0:RiS,"Hirschhorn (Neckar), Rathaus/Hauptstr.",49.445960,8.896340,,,,
de:06431:1599:0:RiW,"Hirschhorn (Neckar), Rathaus/Hauptstr.",49.446310,8.897831,,,,
de:06431:1601,"Hirschhorn (Neckar), Karl-Biesinger-Str.",49.440504,8.897382,,,,
de:06431:1602,"Hirschhorn (Neckar), Altstadt/Schleuse",49.450328,8.900966,,,,
de:06431:1603,"Hirschhorn (Neckar), Heinrich-Weis-Str.",49.448477,8.907371,,,,
de:06431:1604,"Hirschhorn (Neckar), Ersheim Gewerbegebiet",49.451759,8.911036,,,,
de:06431:1757:3:1,"Hofheim, Bahnhof",49.659827,8.409489,,,,
de:06431:1771:1:2,"Lampertheim, Bahnhof",49.598213,8.478479,,de:06431:1771_Parent,,
de:06431:1771:1:3,"Lampertheim, Bahnhof",49.598213,8.478479,,de:06431:1771_Parent,,
de:06431:1771:2:Bus,"Lampertheim, Bahnhof",49.598603,8.477716,,de:06431:1771_Parent,,
de:06431:1771:3:1,"Lampertheim, Bahnhof",49.598213,8.478479,,de:06431:1771_Parent,,
de:06431:1771:4:4,"Lampertheim, Bahnhof",49.598213,8.478479,,de:06431:1771_Parent,,
de:06431:1771:4:5,"Lampertheim, Bahnhof",49.598213,8.478479,,de:06431:1771_Parent,,
de:06431:1771_Parent,"Lampertheim, Bahnhof",49.598213,8.478479,1,,,
de:06431:1772:0:RiO,"Lampertheim, Ernst-Ludwig-Str.",49.597503,8.474077,,,,
de:06431:1772:0:RiW,"Lampertheim, Ernst-Ludwig-Str.",49.597549,8.473808,,,,
de:06431:1783:0:SRiN,"Lampertheim, Mannheimer Straße",49.593007,8.461241,,,,
de:06431:1783:0:SRiS,"Lampertheim, Mannheimer Straße",49.593450,8.461142,,,,
de:06431:1802:0:RiN,"Lampertheim, Schillerplatz",49.596268,8.470493,,,,
de:06431:1802:0:RiS,"Lampertheim, Schillerplatz",49.596455,8.470673,,,,
de:06431:236:1:1,"Bensheim, Bahnhof",49.680757,8.617009,,de:06431:236_Parent,,
de:06431:236:1:2,"Bensheim, Bahnhof",49.680745,8.616838,,de:06431:236_Parent,,
de:06431:236:5:3,"Bensheim, Bahnhof",49.680733,8.616775,,de:06431:236_Parent,,
de:06431:236:5:4,"Bensheim, Bahnhof",49.680716,8.616613,,de:06431:236_Parent,,
de:06431:236_Parent,"Bensheim, Bahnhof",49.681803,8.616955,1,,,
de:06431:248:1:1,"Auerbach, Bahnhof",49.701387,8.613316,,,,
de:06431:248:3:2,"Auerbach, Bahnhof",49.701375,8.613262,,,,
de:06431:248:3:3,"Auerbach, Bahnhof",49.701363,8.613110,,,,
de:06431:270:3:1,"Biblis, Bahnhof",49.688661,8.450407,,de:06431:270_Parent,,
de:06431:270:4:2,"Biblis, Bahnhof",49.688696,8.450353,,de:06431:270_Parent,,
de:06431:270:4:3,"Biblis, Bahnhof",49.688748,8.450263,,de:06431:270_Parent,,
de:06431:270:5:4,"Biblis, Bahnhof",49.688777,8.450218,,de:06431:270_Parent,,
de:06431:270:5:5,"Biblis, Bahnhof",49.688835,8.450128,,de:06431:270_Parent,,
de:06431:270_Parent,"Biblis, Bahnhof",49.688952,8.450497,1,,,
de:06431:285:0:Ri N,"Birkenau, Schwimmbad",49.569430,8.709939,,,,
de:06431:285:0:Ri S,"Birkenau, Schwimmbad",49.569792,8.709930,,,,
de:06431:286:1:1,"Birkenau, Bahnhof",49.561087,8.708565,,,,
de:06431:286:2:2,"Birkenau, Bahnhof",49.561140,8.708529,,,,
de:06431:286:3:GeoB,"Birkenau, Bahnhof",49.560767,8.708448,,,,
de:06431:287:0:Ri N,"Birkenau, Brücke",49.564041,8.707343,,,,
de:06431:287:0:Ri S,"Birkenau, Brücke",49.564082,8.707244,,,,
de:06431:2884:0:RiN,"Mörlenbach, Abzw. Gr.Breitenb.",49.605141,8.749860,,,,
de:06431:2884:0:RiS,"Mörlenbach, Abzw. Gr.Breitenb.",49.605129,8.749797,,,,
de:06431:2886:1:DB,"Mörlenbach, Bahnhof",49.597229,8.730906,,,,
de:06431:2886:3:BuRiN,"Mörlenbach, Bahnhof",49.596833,8.731544,,,,
de:06431:2886:3:BuRiS,"Mörlenbach, Bahnhof",49.596664,8.731463,,,,
de:06431:2888:0:Ri N,"Mörlenbach, Fürther Straße",49.598970,8.738254,,,,
de:06431:2888:0:Ri S,"Mörlenbach, Fürther Straße",49.599127,8.738658,,,,
de:06431:2889:0:Ri N,"Mörlenbach, Jahnstraße",49.593479,8.730583,,,,
de:06431:2889:0:Ri S,"Mörlenbach, Jahnstraße",49.593741,8.730286,,,,
de:06431:288:0:Ri O,"Birkenau, Carlebachmühle",49.560982,8.690284,,,,
de:06431:288:0:Ri S,"Birkenau, Carlebachmühle",49.561134,8.690275,,,,
de:06431:2891:0:Ri N,"Bettenbach, Abzw.",49.588960,8.728921,,,,
de:06431:2891:0:Ri S,"Bettenbach, Abzw.",49.588815,8.728741,,,,
de:06431:289:0:1,"Birkenau, Grundschule",49.560918,8.701387,,,,
de:06431:290:0:1,"Birkenau, Langenbergschule",49.561763,8.713847,,,,
de:06431:2912:0:Ri N,"Mörlenbach, Mitte",49.597375,8.736260,,,,
de:06431:2912:0:Ri S,"Mörlenbach, Mitte",49.597404,8.736053,,,,
de:06431:291:0:Ri O,"Birkenau, Schloss",49.561786,8.702941,,,,
de:06431:291:0:Ri W,"Birkenau, Schloss",49.561990,8.703741,,,,
de:06431:292:0:1,Buchklingen,49.544728,8.732262,,,,
de:06431:295:0:Ri O,"Kallstadt, Brücke",49.553372,8.732298,,,,
de:06431:295:0:Ri W,"Kallstadt, Brücke",49.553267,8.732864,,,,
de:06431:296:0:Ri O,"Kallstadt, Mitte",49.550866,8.737104,,,,
de:06431:296:0:Ri W,"Kallstadt, Mitte",49.550959,8.737158,,,,
de:06431:297:0:Ri O,"Löhrbach, Abzw. Buchklingen",49.547311,8.747983,,,,
de:06431:297:0:Ri W,"Löhrbach, Abzw. Buchklingen",49.547386,8.747929,,,,
de:06431:298:0:Ri O,"Löhrbach, Schulstraße",49.548027,8.755762,,,,
de:06431:298:0:Ri W,"Löhrbach, Schulstraße",49.548185,8.755511,,,,
de:06431:299:0:Ri O,"Löhrbach, Falterweg",49.546804,8.758763,,,,
de:06431:299:0:Ri W,"Löhrbach, Falterweg",49.546914,8.758736,,,,
de:06431:2:0:Ri N,"Ober-Abtsteinach, Pfarrgarten",49.543038,8.786098,,,,
de:06431:2:0:Ri S,"Ober-Abtsteinach, Pfarrgarten",49.542642,8.785685,,,,
de:06431:300:0:Ri O,"Löhrbach, Oberer Ortsteil",49.545154,8.766138,,,,
de:06431:300:0:Ri W,"Löhrbach, Oberer Ortsteil",49.545218,8.766138,,,,
de:06431:302:0:Ri N,"Reisen, Odenwaldstraße",49.579147,8.718689,,,,
de:06431:302:0:Ri S,"Reisen, Odenwaldstraße",49.578413,8.717808,,,,
de:06431:303:1:DB,"Reisen, Bahnhof",49.577906,8.720018,,,,
de:06431:3045:1:1,Neckarhausen b.Neckarsteinach,49.417140,8.880736,,,,
de:06431:3045:3:GeoFä,Neckarhausen b.Neckarsteinach,49.416322,8.881607,,,,
de:06431:3045:4:2,Neckarhausen b.Neckarsteinach,49.416824,8.879568,,,,
de:06431:3047:1:2,"Neckarsteinach, Bahnhof",49.405024,8.841291,,,,
de:06431:3047:2:Bus,"Neckarsteinach, Bahnhof",49.404591,8.841219,,,,
de:06431:3047:4:1,"Neckarsteinach, Bahnhof",49.405006,8.841237,,,,
de:06431:3048:0:Ri N,"Neckarsteinach, Lederfabrik",49.410571,8.835622,,,,
de:06431:3048:0:Ri S,"Neckarsteinach, Lederfabrik",49.410588,8.835236,,,,
de:06431:3049:0:Ri N,"Neckarsteinach, Mitte",49.408782,8.838686,,,,
de:06431:3049:0:Ri S,"Neckarsteinach, Mitte",49.408595,8.838614,,,,
de:06431:304:0:1,"Löhrbach, Alte Landstraße",49.545871,8.761619,,,,
de:06431:3050:0:Ri S,"Neckarsteinach, Schloßsteige",49.408040,8.835811,,,,
de:06431:3050:0:Ri W,"Neckarsteinach, Schloßsteige",49.408239,8.835137,,,,
de:06431:3051:0:Ri N,"Neckarsteinach, Sportplatz",49.412365,8.826819,,,,
de:06431:3051:0:Ri S,"Neckarsteinach, Sportplatz",49.412003,8.827295,,,,
de:06431:3052:0:1,"Neckarsteinach, Vierburgeneck",49.405287,8.824941,,,,
de:06431:308:0:1,"Löhrbach, Ost",49.544798,8.775543,,,,
de:06431:3308:0:RiN,"Heppenheim, Niedermühlstraße",49.643467,8.639251,,,,
de:06431:3308:0:RiS,"Heppenheim, Niedermühlstraße",49.643694,8.639179,,,,
de:06431:3349:0:Ri W,"Zotzenbach, Am Weisskopp",49.604175,8.762356,,,,
de:06431:3350:0:Ri O,"Zotzenbach, Bahnhofstraße",49.604844,8.760613,,,,
de:06431:3360:1:2,"Rimbach, Bahnhof",49.627537,8.757505,,,,
de:06431:3360:2:Bus,"Rimbach, Bahnhof",49.626676,8.757361,,,,
de:06431:3360:3:1,"Rimbach, Bahnhof",49.627497,8.757577,,,,
de:06431:3361:0:RiN,"Rimbach, Goethestraße",49.616987,8.757065,,,,
de:06431:3361:0:RiS,"Rimbach, Goethestraße",49.616899,8.756930,,,,
de:06431:3362:0:Ri N,"Rimbach, Kirche",49.621637,8.758826,,,,
de:06431:3362:0:Ri S,"Rimbach, Kirche",49.621287,8.758718,,,,
de:06431:3366:1:Bus,"Zotzenbach, Bahnhof",49.609693,8.754020,,,,
de:06431:3366:1:DB,"Zotzenbach, Bahnhof",49.609297,8.753157,,,,
de:06431:3835:0:RiO,"Viernheim, Walter-Gropius-Allee (Tram)",49.539325,8.596213,,,,
de:06431:3835:0:RiW,"Viernheim, Walter-Gropius-Allee (Tram)",49.539150,8.595422,,,,
de:06431:3841:1:TrRiO,"Viernheim, Kapellenberg",49.529840,8.575982,,,,
de:06431:3841:1:TrRiW,"Viernheim, Kapellenberg",49.529775,8.575228,,,,
de:06431:3851:1:TrRiW,"Viernheim, Bahnhof",49.535361,8.582477,,,,
de:06431:3851:2:TrRiO,"Viernheim, Bahnhof",49.535716,8.583205,,,,
de:06431:3853:0:TrRiO,"Viernheim, Ost",49.537500,8.589799,,,,
de:06431:3853:0:TrRiW,"Viernheim, Ost",49.537430,8.589394,,,,
de:06431:3865:1:TrRiO,"Viernheim, Tivoli (RNZ)",49.528277,8.565679,,,,
de:06431:3865:1:TrRiW,"Viernheim, Tivoli (RNZ)",49.528102,8.564870,,,,
de:06431:3938:0:Ri N,"U-Schönmattenwag, Abzw Korsika",49.517390,8.859320,,,,
de:06431:3938:0:Ri S,"U-Schönmattenwag, Abzw Korsika",49.517156,8.858961,,,,
de:06431:3939:0:Ri N,"Wald-Michelbach, Industriepark",49.566436,8.843878,,,,
de:06431:3939:0:Ri S,"Wald-Michelbach, Industriepark",49.567181,8.842953,,,,
de:06431:3951:0:Ri N,"Ober-Schönmattenwag, Mitte",49.536725,8.863354,,,,
de:06431:3951:0:Ri S,"Ober-Schönmattenwag, Mitte",49.536731,8.863201,,,,
de:06431:3952:0:Ri N,"Ober-Schönmattenwag, Raubacher Weg",49.540030,8.863030,,,,
de:06431:3952:0:Ri S,"Ober-Schönmattenwag, Raubacher Weg",49.539925,8.863210,,,,
de:06431:3957:0:RiN,"Affolterbach, Abzw. Beerfelden",49.596035,8.855242,,,,
de:06431:3957:0:RiS,"Affolterbach, Abzw. Beerfelden",49.596897,8.854649,,,,
de:06431:3958,"Affolterbach, Dorfgemeinschaft",49.598230,8.853409,,,,
de:06431:3959:0:Ri N,"Affolterbach, Mitte",49.599249,8.855188,,,,
de:06431:3959:0:Ri S,"Affolterbach, Mitte",49.599296,8.855062,,,,
de:06431:3960:0:1,"Affolterbach, Steingrund",49.599261,8.863309,,,,
de:06431:3961:0:Ri N,"Aschbach, Adolf-Koch-Straße",49.574796,8.844444,,,,
de:06431:3961:0:Ri S,"Aschbach, Adolf-Koch-Straße",49.575093,8.844471,,,,
de:06431:3962:0:1,"Aschbach, Im Wiesental",49.578815,8.847525,,,,
de:06431:3963:0:1,"Aschbach, Geopfad-Infozentrum",49.575361,8.853921,,,,
de:06431:3964:0:1,"Aschbach, Sportplatz",49.575990,8.849151,,,,
de:06431:3965:0:Ri N,"U-Schönmattenwag, Flockenbusch",49.506034,8.852340,,,,
de:06431:3965:0:Ri S,"U-Schönmattenwag, Flockenbusch",49.506267,8.852295,,,,
de:06431:3966:0:1,"Kocherbach, Mitte",49.599570,8.834167,,,,
de:06431:3972:0:Ri N,"Siedelsbrunn,Tannenberg/Morgenstern",49.550475,8.812904,,,,
de:06431:3972:0:Ri S,"Siedelsbrunn,Tannenberg/Morgenstern",49.550644,8.812949,,,,
de:06431:3973:0:Ri N,"Siedelsbrunn, Mitte",49.549380,8.807882,,,,
de:06431:3973:0:Ri S,"Siedelsbrunn, Mitte",49.549432,8.807766,,,,
de:06431:3974:0:Ri N,"Siedelsbrunn, Buddhas Weg",49.546197,8.803400,,,,
de:06431:3974:0:Ri S,"Siedelsbrunn, Buddhas Weg",49.546168,8.803247,,,,
de:06431:3975:0:Ri N,"Unter-Schönmattenwag, Kreuz",49.528668,8.864899,,,,
de:06431:3975:0:Ri S,"Unter-Schönmattenwag, Kreuz",49.529128,8.864997,,,,
de:06431:3976:0:Ri N,"Unter-Schönmattenwag, Kirche",49.523752,8.863129,,,,
de:06431:3976:0:Ri S,"Unter-Schönmattenwag, Kirche",49.523577,8.863075,,,,
de:06431:3977:0:RiO,"Wald-Michelbach, Alter Bahnhof",49.569821,8.839054,,,,
de:06431:3977:0:RiW,"Wald-Michelbach, Alter Bahnhof",49.569768,8.838847,,,,
de:06431:3979,"Wald-Michelbach, Michelstraße",49.570939,8.828256,,,,
de:06431:3980:0:Ri N,"Wald-Michelbach, Abzw. Binzig",49.560411,8.846744,,,,
de:06431:3980:0:Ri S,"Wald-Michelbach, Abzw. Binzig",49.560236,8.846663,,,,
de:06431:3981:0:Ri O,"Wald-Michelbach, ZOB",49.574021,8.822947,,,,
de:06431:3981:0:Ri W,"Wald-Michelbach, ZOB",49.574126,8.823001,,,,
de:06431:3983:0:Ri N,"Aschbach, Heckenmühle",49.583818,8.848055,,,,
de:06431:3983:0:Ri S,"Aschbach, Heckenmühle",49.583818,8.847956,,,,
de:06431:3984:0:Ri N,"Kreidach, Kreidacher Höhe",49.563622,8.813362,,,,
de:06431:3984:0:Ri S,"Kreidach, Kreidacher Höhe",49.563645,8.813254,,,,
de:06431:3986,"Wald-Michelbach, Schulzentrum",49.565941,8.830224,,,,
de:06431:3991:0:Ri N,"Straßburg, Ort",49.550598,8.855260,,,,
de:06431:3991:0:Ri S,"Straßburg, Ort",49.550411,8.855134,,,,
de:06431:3:0:Ri O,"O.-Abtsteinach, Mackenh'str.",49.544093,8.787536,,,,
de:06431:3:0:Ri S,"O.-Abtsteinach, Mackenh'str.",49.544198,8.787491,,,,
de:06431:4004:0:1,"Affolterbach, Am Roßklingen",49.596996,8.859042,,,,
de:06431:410:1:1,"Bobstadt, Bahnhof",49.662874,8.451880,,,,
de:06431:410:2:2,"Bobstadt, Bahnhof",49.662543,8.452069,,,,
de:06431:416:1:1,"Bürstadt, Bahnhof",49.644886,8.459345,,,,
de:06431:416:4:2,"Bürstadt, Bahnhof",49.644874,8.459300,,,,
de:06431:4298:0:RiS,"Gras-Ellenbach, Im Erzfeld",49.632803,8.861889,,,,
de:06431:4526:1:1,"Zwingenberg, Bahnhof",49.726335,8.608861,,,,
de:06431:4526:3:2,"Zwingenberg, Bahnhof",49.726329,8.608807,,,,
de:06431:4:0:Ri O,"Ober-Abtsteinach, Siedlung",49.544332,8.781310,,,,
de:06431:4:0:Ri W,"Ober-Abtsteinach, Siedlung",49.544268,8.780691,,,,
de:06431:5120:0:Ri N,"U-Flockenbach, Herlenklingerw.",49.533577,8.725408,,,,
de:06431:5120:0:Ri S,"U-Flockenbach, Herlenklingerw.",49.533443,8.726091,,,,
de:06431:5121:0:Ri O,"U-Flockenbach, Federheckstr.",49.530633,8.735308,,,,
de:06431:5121:0:Ri W,"U-Flockenbach, Federheckstr.",49.530714,8.735182,,,,
de:06431:5122:0:Ri S,"Trösel, Daumbergschule",49.527140,8.751136,,,,
de:06431:5122:0:Ri W,"Trösel, Daumbergschule",49.527321,8.750507,,,,
de:06431:5132:0:1,"Trösel, Kirschenstraße",49.527181,8.759868,,,,
de:06431:6164:0:Ri N,"Gorxheim, Kunzenbacher Brücke",49.536398,8.717467,,,,
de:06431:6164:0:Ri S,"Gorxheim, Kunzenbacher Brücke",49.536247,8.717728,,,,
de:06431:6280:0:RiO,"Lampertheim, Rathaus",49.594446,8.466603,,,,
de:06431:6280:0:RiW,"Lampertheim, Rathaus",49.594492,8.466855,,,,
de:06431:6313:0:Ri N,"Wahlen, Im Michelsgrund",49.609327,8.856041,,,,
de:06431:6313:0:Ri S,"Wahlen, Im Michelsgrund",49.609210,8.855933,,,,
de:06431:6314:0:RiN,"Unter-Abtsteinach, Feuerwehr",49.535029,8.786449,,,,
de:06431:6314:0:RiS,"Unter-Abtsteinach, Feuerwehr",49.534993,8.786422,,,,
de:06431:6514:0:1,"Hirschhorn, Grundschule",49.449055,8.903697,,,,
de:06431:6699,"Ober-Laudenbach, Schannenb.Weg",49.608448,8.684912,,,,
de:06431:6701,"Ober-Laudenb., I.d. Wolfslücke",49.617458,8.692072,,,,
de:06431:6828:0:Ri O,"W.-Michelbach, Einkaufszentrum",49.568778,8.833305,,,,
de:06431:6828:0:Ri W,"W.-Michelbach, Einkaufszentrum",49.568953,8.833044,,,,
de:06431:694,"Birkenau, Schönherrnberg/EKZ",49.561559,8.692835,,,,
de:06431:6:0:RiN,"Unter-Abtsteinach, Brücke",49.529175,8.787221,,,,
de:06431:6:0:RiS,"Unter-Abtsteinach, Brücke",49.529099,8.787140,,,,
de:06431:748,"Birkenau, Friedenslinde",49.558104,8.707909,,,,
de:06431:7531:0:Ri N,"Gorxheim, Gorxenbuckel",49.541184,8.707514,,,,
de:06431:7531:0:Ri S,"Gorxheim, Gorxenbuckel",49.541190,8.707172,,,,
de:06431:7532:0:Ri N,"Gorxheim, Am Wiegert",49.538311,8.713326,,,,
de:06431:7532:0:Ri S,"Gorxheim, Am Wiegert",49.538229,8.713245,,,,
de:06431:7533:0:Ri N,"Unter-Flockenbach, Kirche",49.531268,8.730574,,,,
de:06431:7533:0:Ri S,"Unter-Flockenbach, Kirche",49.531583,8.729729,,,,
de:06431:873:0:Ri N,"Fürth, Abzw. Linnenbach",49.643228,8.768105,,,,
de:06431:873:0:Ri S,"Fürth, Abzw. Linnenbach",49.642268,8.766335,,,,
de:06431:874:1:Bus,"Fürth, Bahnhof",49.648644,8.780942,,,,
de:06431:874:1:DB,"Fürth, Bahnhof",49.648434,8.780601,,,,
de:06431:878:0:RiW,"Fürth, Marktplatz",49.649865,8.780520,,,,
de:06431:880:0:Ri N,"Fürth, Siedlung",49.645968,8.772678,,,,
de:06431:880:0:Ri S,"Fürth, Siedlung",49.645857,8.772354,,,,
de:06431:889:0:Ri O,"Lörzenbach, Brücke",49.639028,8.759975,,,,
de:06431:889:0:Ri S,"Lörzenbach, Brücke",49.639081,8.759823,,,,
de:06431:891:1:DB,"Lörzenbach-Fahrenbach, Bahnhof",49.638731,8.764521,,,,
de:06431:8:0:1,"Unter-Abtsteinach, Schule",49.527752,8.786673,,,,
de:06431:947:0:Ri O,"Trösel, Apfelstraße",49.527111,8.760371,,,,
de:06431:947:0:Ri W,"Trösel, Apfelstraße",49.527192,8.761296,,,,
de:06431:948:0:Ri N,"Trösel, Bergweg",49.527857,8.744812,,,,
de:06431:948:0:Ri S,"Trösel, Bergweg",49.527624,8.745297,,,,
de:06431:949:0:Ri S,"Trösel, Mühlweg",49.530294,8.741012,,,,
de:06431:949:0:Ri W,"Trösel, Mühlweg",49.530189,8.741551,,,,
de:06431:950:0:Ri O,"Trösel, Rose",49.526942,8.754514,,,,
de:06431:950:0:Ri W,"Trösel, Rose",49.526959,8.754190,,,,
de:06431:952:0:Ri N,"U-Flockenbach, Eichelberger Weg",49.534894,8.721096,,,,
de:06431:952:0:Ri S,"U-Flockenbach, Eichelberger Weg",49.534405,8.722012,,,,
de:06431:970:0:1,"Wahlen, Grundschule",49.612528,8.860353,,,,
de:06431:971:0:Ri N,"Wahlen, Mitte",49.613890,8.856634,,,,
de:06431:971:0:Ri S,"Wahlen, Mitte",49.612540,8.856365,,,,
de:06431:972:0:Ri N,"Wahlen, Siegfriedring",49.615939,8.856454,,,,
de:06431:972:0:Ri S,"Wahlen, Siegfriedring",49.616568,8.856436,,,,
de:06431:977:0:Ri N,"Gras-Ellenbach, Nibelungenh.",49.627671,8.858368,,,,
de:06431:977:0:Ri S,"Gras-Ellenbach, Nibelungenh.",49.627537,8.858368,,,,
de:06431:990:1:1,"Groß-Rohrheim, Bahnhof",49.713842,8.476521,,,,
de:06431:990:2:2,"Groß-Rohrheim, Bahnhof",49.713819,8.476575,,,,
de:06431:990:2:3,"Groß-Rohrheim, Bahnhof",49.713772,8.476701,,,,
de:06432:11219:2:2,Groß-Umstadt Wiebelsbach,49.833154,8.941067,,,,
de:06432:11219:2:3,Groß-Umstadt Wiebelsbach,49.833113,8.940968,,,,
de:06432:11219:3:4,Groß-Umstadt Wiebelsbach,49.833055,8.940851,,,,
de:06432:11252:1:1,Hähnlein-Alsbach,49.739805,8.606426,,,,
de:06432:11252:2:2,Hähnlein-Alsbach,49.739811,8.606489,,,,
de:06432:17113:1:1,"Mosbach, Raiffeisenbank",49.891247,9.029730,,,,
de:06432:17113:2:2,"Mosbach, Raiffeisenbank",49.890906,9.029928,,,,
de:06432:17115:1:1,"Radheim, Ost",49.889164,9.021960,,,,
de:06432:17115:2:2,"Radheim, Ost",49.888880,9.021187,,,,
de:06432:17116:1:1,"Radheim, Alte Schule",49.890506,9.014783,,,,
de:06432:17116:1:2,"Radheim, Alte Schule",49.890396,9.014863,,,,
de:06432:17123:1:1,"Schaafheim, Sporthalle",49.923674,9.004182,,,,
de:06432:17123:2:2,"Schaafheim, Sporthalle",49.923610,9.003805,,,,
de:06432:17125:1:1,"Schaafheim, Gh. Schützenhof",49.919533,9.005305,,,,
de:06432:17125:2:2,"Schaafheim, Gh. Schützenhof",49.919649,9.005144,,,,
de:06432:17126:1:1,"Schaafheim, Langstädter Straße",49.921447,9.002476,,,,
de:06432:17126:2:2,"Schaafheim, Langstädter Straße",49.921407,9.002556,,,,
de:06432:22545:1:1,"Schaafheim, Heimatring",49.927618,9.001865,,,,
de:06432:22545:2:2,"Schaafheim, Heimatring",49.927589,9.001748,,,,
de:06432:22575:1:1,"Mosbach, Lindenfeldschule",49.889325,9.030808,,,,
de:06432:24728:1:1,"Schaafheim, Ärztehaus",49.925478,9.004084,,,,
de:06432:24728:2:2,"Schaafheim, Ärztehaus",49.925259,9.004093,,,,
de:06432:24861:1:1,"Babenhausen, Im Riemen",49.952525,8.956958,,,,
de:06432:24861:2:2,"Babenhausen, Im Riemen",49.952525,8.956958,,,,
de:06432:24968:1:1,"Schaafheim, Wartturm",49.904863,9.008054,,,,
de:06432:24968:2:2,"Schaafheim, Wartturm",49.904972,9.007955,,,,
de:06432:24986:1:1,"Mosbach, Evangelische Kirche",49.891195,9.032704,,,,
de:06432:24986:2:2,"Mosbach, Evangelische Kirche",49.891177,9.032920,,,,
de:06432:6622:1:1,"Babenhausen, Jo.-Schumann-Schule",49.964944,8.957290,,,,
de:06432:8563:5:5,"Babenhausen, Bahnhof",49.958096,8.956239,,,,
de:06433:11267:1:1,Stockstadt (Rhein),49.809588,8.472532,,,,
de:06433:11267:2:2,Stockstadt (Rhein),49.809675,8.472649,,,,
de:06433:11268:1:1,Biebesheim,49.781685,8.474024,,,,
de:06433:11268:2:2,Biebesheim,49.782271,8.473952,,,,
de:06433:11269:2:2,Gernsheim,49.752877,8.490301,,,,
de:06433:11269:3:3,Gernsheim,49.753881,8.490139,,,,
de:06433:11269:3:4,Gernsheim,49.753899,8.490301,,,,
de:06433:2802:1:4,Walldorf (Hess),50.001854,8.581229,,,,
de:06433:2802:2:5,Walldorf (Hess),50.001681,8.581049,,,,
de:06433:4801:2:2,Groß Gerau-Dornberg,49.911724,8.494568,,de:06433:4801_Parent,,
de:06433:4801:2:3,Groß Gerau-Dornberg,49.911724,8.494748,,de:06433:4801_Parent,,
de:06433:4801:3:4,Groß Gerau-Dornberg,49.911724,8.494802,,de:06433:4801_Parent,,
de:06433:4801:3:5,Groß Gerau-Dornberg,49.911718,8.494990,,de:06433:4801_Parent,,
de:06433:4801_Parent,Groß Gerau-Dornberg,49.912279,8.494703,1,,,
de:06433:4899:3:7,Mörfelden,49.979405,8.565742,,,,
de:06433:4899:4:8,Mörfelden,49.979665,8.565858,,,,
de:06433:4899:4:9,Mörfelden,49.979700,8.565742,,,,
de:06433:6801:1:1,Riedstadt-Wolfskehlen,49.855242,8.493176,,,,
de:06433:6801:2:2,Riedstadt-Wolfskehlen,49.853209,8.493050,,,,
de:06433:6802:1:1,Riedstadt-Goddelau,49.832818,8.489196,,de:06433:6802_Parent,,
de:06433:6802:2:2,Riedstadt-Goddelau,49.832829,8.489142,,de:06433:6802_Parent,,
de:06433:6802:2:6,Riedstadt-Goddelau,49.832870,8.488998,,de:06433:6802_Parent,,
de:06433:6802:5:5,Riedstadt-Goddelau,49.832806,8.488702,,de:06433:6802_Parent,,
de:06433:6802:5:7,Riedstadt-Goddelau,49.832986,8.489043,,de:06433:6802_Parent,,
de:06433:6802_Parent,Riedstadt-Goddelau,49.833229,8.489187,1,,,
de:06433:6899:1:1,Groß Gerau-Dornheim,49.876695,8.493643,,,,
de:06433:6899:2:2,Groß Gerau-Dornheim,49.878502,8.493742,,,,
de:06436:6998:1:1,Hochheim (Main),50.004378,8.349463,,,,
de:06436:6998:2:2,Hochheim (Main),50.004343,8.349454,,,,
de:06437:11220:1:1,Höchst (Odenw),49.794404,8.988480,,,,
de:06437:11220:2:2,Höchst (Odenw),49.794404,8.988623,,,,
de:06437:11221:4:4,Bad König,49.738806,9.001604,,,,
de:06437:11221:5:5,Bad König,49.739143,9.001829,,,,
de:06437:11223:1:1,Erbach (Odenw),49.657001,8.989639,,,,
de:06437:11223:2:2,Erbach (Odenw),49.656972,8.989531,,,,
de:06437:11223:4,"Erbach (Odw), Bahnhof Bstg B",49.656914,8.990106,,,,Bstg B
de:06437:11223:5,"Erbach (Odw), Bahnhof Bstg A",49.656972,8.990052,,,,Bstg A
de:06437:11224:1,"Hetzbach, Bahnhof",49.594225,8.992459,,,,
de:06437:11231:1:1,Höchst Hetschbach,49.807536,8.983270,,,,
de:06437:11232:2:3,Höchst Mümling-Grumbach,49.771957,8.985614,,,,
de:06437:11233:3:3,Bad König Zell,49.719406,8.993951,,,,
de:06437:11447:1:1,Hesseneck Schöllenbach,49.565877,9.067756,,,,
de:06437:11448:1:1,Hesseneck Kailbach,49.539430,9.077476,,,,
de:06437:11473,"Beerfelden, Bahnhof",49.571032,8.978661,,,,
de:06437:15304,"Michelstadt, Th.-Litt-Schule",49.670322,9.009402,,,,
de:06437:15306,"Stockheim (Odw), B45",49.669828,8.999125,,,,
de:06437:15308,"Michelstadt, Hallenbad",49.670758,9.003329,,,,
de:06437:23021,"Beerfelden, Eberbacher Weg",49.563464,8.978895,,,,
de:06437:23024,"Beerfelden, Gammelsbacher Str.",49.565900,8.974933,,,,
de:06437:23025,"Beerfelden, Grundschule",49.564478,8.973523,,,,
de:06437:23026,"Beerfelden, Gesamtschule",49.567391,8.981868,,,,
de:06437:23027,"Beerfelden, Kindergarten",49.563004,8.976344,,,,
de:06437:23028,"Beerfelden, Markt",49.568539,8.973693,,,,
de:06437:23029,"Beerfelden, Post",49.569017,8.976793,,,,
de:06437:23043,"Gammelsbach, Klenge",49.515518,8.965689,,,,
de:06437:23044,"Gammelsbach, Gasthaus Krone",49.532737,8.966103,,,,
de:06437:23045,"Gammelsbach, Post",49.527088,8.965860,,,,
de:06437:23046,"Gammelsbach, Gasth. Riesinger",49.518486,8.966004,,,,
de:06437:23047,"Gammelsbach, Steingrund",49.540281,8.969858,,,,
de:06437:23050,"Hetzbach, Damm",49.588693,8.988695,,,,
de:06437:23051,"Hetzbach, Abzw. Etzean",49.587539,8.982695,,,,
de:06437:23141,"Erbach, Mittelpunktschule",49.662386,9.001272,,,,
de:06437:23142,"Erbach (Odw), Neckarstraße",49.655530,8.995864,,,,
de:06437:23143,"Erbach (Odw), Post",49.662275,8.994894,,,,
de:06437:23155,"Ebersberg, B45",49.618121,8.993861,,,,
de:06437:23156,"Ebersberg, Ort",49.615584,8.993133,,,,
de:06437:23166,"Lauerbach, B45",49.647533,8.994858,,,,
de:06437:23169,"Schöllenbach, Rathaus",49.566238,9.070415,,,,
de:06437:23170,"Haisterbach, Viadukt",49.606189,8.988067,,,,
de:06437:23172,"Schönnen, B45",49.627875,8.994678,,,,
de:06437:23174,"Schönnen, Abzw. Günterfürst",49.636114,8.998703,,,,
de:06437:23175,"Schöllenbach, Spielplatz",49.569757,9.064801,,,,
de:06437:23176,"Kailbach, Feuerwehrhaus",49.535501,9.076721,,,,
de:06437:23177,"Kailbach, Bahnhofstraße",49.541802,9.080341,,,,
de:06437:23178,"Schöllenbach, Mitte",49.567822,9.066912,,,,
de:06437:23180,"Schöllenbach, Süd",49.562013,9.072724,,,,
de:06437:23263,"Michelstadt, Hammerweg",49.677723,9.001955,,,,
de:06437:23270,"Michelstadt, Odenwaldhalle",49.674252,9.004416,,,,
de:06437:23323,"Hebstahl, Haus Am Brunnen",49.515664,9.010408,,,,
de:06437:23324,"Hebstahl, Gemeinschaftshaus",49.512036,9.010075,,,,
de:06437:23325,"Hebstahl, Schulstraße",49.509283,9.010111,,,,
de:06437:23326,"Ober-Sensbach, Sensbach. Höhe",49.548698,8.993744,,,,
de:06437:23327,"Ober-Sensbach, Bauernst. Maier",49.556548,9.012842,,,,
de:06437:23328,"Ober-Sensbach, Gasthaus Pflug",49.549409,9.011548,,,,
de:06437:23330,"Ober-Sensbach, Das Tolle Rott",49.565090,9.015393,,,,
de:06437:23331,"Ober-Sensbach, GH Buckelwirt",49.561320,9.015034,,,,
de:06437:23334,"Unter-Sensbach, Sandhof",49.537506,9.010066,,,,
de:06437:23335,"Unter-Sensbach, Haus Obenauer",49.541383,9.010551,,,,
de:06437:23336,"Unter-Sensbach, Post",49.531425,9.012097,,,,
de:06437:23337,"Ober-Sensbach, Bork",49.558168,9.012752,,,,
de:06437:23347,"Erbach, Illigstraße",49.653744,8.993870,,,,
de:06437:23349,"Erbach, Landratsamt",49.662653,8.993304,,,,
de:06437:23470,"Hetzbach, B45",49.590929,8.987779,,,,
de:06437:23497,"Michelstadt, Gymnasium",49.675409,9.004928,,,,
de:06437:23973,"Beerfelden, Forstamt",49.575163,8.982281,,,,
de:06437:23979,"Beerfelden, Seeweg",49.559875,8.976829,,,,
de:06437:23998,"Beerfelden, Bikepark",49.559729,8.982012,,,,
de:06437:27473,"Hesselbach, Ort",49.574778,9.087789,,,,
de:06437:27486,"Erbach, Brunnenstraße",49.663101,8.988121,,,,
de:06437:27649,"Ober-Sensbach, Sensbacher Str.",49.546885,9.010246,,,,
de:06437:8422:0:A,"Michelstadt, Bahnhof Bstg A",49.684942,9.001838,,,,Bstg A
de:06437:8422:0:F,"Michelstadt, Bahnhof Bstg F",49.685104,9.001990,,,,Bstg F
de:06438:2705:1:1,Langen (Hess),49.993066,8.656912,,,,
de:06438:2705:2:2,Langen (Hess),49.993412,8.656867,,,,
de:06438:2801:1:1,Zeppelinheim,50.036059,8.604881,,,,
de:06438:2801:1:5,Zeppelinheim,50.036025,8.604998,,,,
de:07111:010001_Parent,Koblenz Hbf,50.350930,7.588348,1,,,
de:07133:8177:1:1,"Bad Münster, Bahnhof",49.813148,7.846865,,,,
de:07133:8177:4:3,"Bad Münster, Bahnhof",49.813258,7.846703,,,,
de:07133:8178:1:1,"Bad Kreuznach, Bahnhof",49.842719,7.866430,,,,
de:07133:8178:3:2,"Bad Kreuznach, Bahnhof",49.842713,7.866484,,,,
de:07211:1318:10:12N,Trier Hbf,49.757770,6.653219,,de:07211:1318_Parent,,
de:07211:1318:10:12S,Trier Hbf,49.756150,6.651602,,de:07211:1318_Parent,,
de:07211:1318:10:13N,Trier Hbf,49.757717,6.653345,,de:07211:1318_Parent,,
de:07211:1318:10:13S,Trier Hbf,49.756098,6.651746,,de:07211:1318_Parent,,
de:07211:1318:7:10S,Trier Hbf,49.755959,6.651162,,de:07211:1318_Parent,,
de:07211:1318:7:11N,Trier Hbf,49.757793,6.653166,,de:07211:1318_Parent,,
de:07211:1318:7:11S,Trier Hbf,49.756174,6.651548,,de:07211:1318_Parent,,
de:07211:1318_Parent,Trier Hbf,49.756847,6.652456,1,,,
de:07211:1501:1:1,Trier Süd,49.744478,6.636439,,,,
de:07231:40283:2:2,Hetzerath,49.878374,6.798675,,,,
de:07231:40916:1:2,Wittlich Hbf,49.973155,6.943744,,,,
de:07231:40916:1:3,Wittlich Hbf,49.973079,6.943789,,,,
de:07231:40916:3:1,Wittlich Hbf,49.972929,6.942702,,,,
de:07235:10413:1:1,Kanzem,49.669543,6.573988,,,,
de:07235:10413:2:2,Kanzem,49.669502,6.574015,,,,
de:07235:10487:1:1,Konz,49.696094,6.574437,,,,
de:07235:10487:3:3,Konz,49.695611,6.573817,,,,
de:07235:10502:3:56,Karthaus,49.710054,6.596635,,,,
de:07235:10989:1:1,Wiltingen (Saar),49.662479,6.590409,,,,
de:07235:11130:2:2,Schoden-Ockfen,49.636003,6.580276,,,,
de:07235:11150:1:1,Serrig,49.577493,6.569622,,,,
de:07235:6507:2:2,Schweich DB,49.831131,6.740634,,,,
de:07235:6507:2:3,Schweich DB,49.831213,6.740572,,,,
de:07235:7484:1:1,Saarburg (Bz Trier),49.606084,6.556875,,,,
de:07235:7484:3:2,Saarburg (Bz Trier),49.606090,6.556821,,,,
de:07235:7511:1:2,Taben,49.552463,6.601270,,,,
de:07235:7560:3:2,Föhren,49.857298,6.767593,,,,
de:07311:7090:1:2,"Frankenthal, Haltepunkt Süd",49.522492,8.349553,,,,
de:07311:7090:1:3,"Frankenthal, Haltepunkt Süd",49.522492,8.349418,,,,
de:07311:7090:3:1,"Frankenthal, Haltepunkt Süd",49.522492,8.349607,,,,
de:07311:765:1:DB,"Flomersheim, Bahnhof",49.513844,8.333500,,,,
de:07311:771:1:1,"Frankenthal, Hauptbahnhof",49.535915,8.349778,,,,
de:07311:771:4:2,"Frankenthal, Hauptbahnhof",49.535915,8.349715,,,,
de:07311:771:4:3,"Frankenthal, Hauptbahnhof",49.535915,8.349571,,,,
de:07312:8125:1:1,"Einsiedlerhof, Bahnhof",49.430953,7.661902,,,,
de:07312:8125:3:2,"Einsiedlerhof, Bahnhof",49.430918,7.661911,,,,
de:07312:8126:1:1,Vogelweh,49.438629,7.706386,,,,
de:07312:8126:1:2,Vogelweh,49.438594,7.706395,,,,
de:07312:8127:1:1,"Kennelgarten, Bahnhof",49.440977,7.733488,,,,
de:07312:8127:1:2,"Kennelgarten, Bahnhof",49.440878,7.733453,,,,
de:07312:9035:1:1,"Kaiserslautern, Hbf",49.436164,7.768999,,de:07312:9035_Parent,,
de:07312:9035:3:2,"Kaiserslautern, Hbf",49.436123,7.769008,,de:07312:9035_Parent,,
de:07312:9035:3:3,"Kaiserslautern, Hbf",49.436012,7.769053,,de:07312:9035_Parent,,
de:07312:9035:4:4,"Kaiserslautern, Hbf",49.435971,7.769071,,de:07312:9035_Parent,,
de:07312:9035:4:45,"Kaiserslautern, Hbf",49.435224,7.765810,,de:07312:9035_Parent,,
de:07312:9035:4:5,"Kaiserslautern, Hbf",49.435854,7.769134,,de:07312:9035_Parent,,
de:07312:9035:5:10,"Kaiserslautern, Hbf",49.435738,7.769196,,de:07312:9035_Parent,,
de:07312:9035:5:8,"Kaiserslautern, Hbf",49.435814,7.769160,,de:07312:9035_Parent,,
de:07312:9035_Parent,"Kaiserslautern, Hbf",49.436275,7.768262,1,,,
de:07313:15081:1:DB,"Landau, Süd",49.189072,8.114212,,,,
de:07313:8050:1:DB,"Landau, Westbahnhof",49.195799,8.106738,,,,
de:07313:8051:1:1,"Godramstein, Bahnhof",49.206905,8.075774,,,,
de:07313:8051:1:2,"Godramstein, Bahnhof",49.206846,8.075765,,,,
de:07313:8304:1:2,"Landau, Hbf/ZOB",49.198147,8.126052,,de:07313:8304_Parent,,
de:07313:8304:1:3,"Landau, Hbf/ZOB",49.198142,8.126232,,de:07313:8304_Parent,,
de:07313:8304:6:1,"Landau, Hbf/ZOB",49.198147,8.125998,,de:07313:8304_Parent,,
de:07313:8304:7:4,"Landau, Hbf/ZOB",49.198142,8.126286,,de:07313:8304_Parent,,
de:07313:8304:7:5,"Landau, Hbf/ZOB",49.198142,8.126465,,de:07313:8304_Parent,,
de:07313:8304_Parent,"Landau, Hauptbahnhof",49.198024,8.126313,1,,,
de:07314:2019:1:1,"Ludwigshafen, Mitte",49.479088,8.452329,,,,
de:07314:2019:4:2,"Ludwigshafen, Mitte",49.479058,8.452356,,,,
de:07314:2019:4:3,"Ludwigshafen, Mitte",49.478971,8.452455,,,,
de:07314:2031:1:TrRiS,"Friesenheim, Ost",49.501472,8.421427,,,,
de:07314:2031:2:TrRiN,"Friesenheim, Ost",49.501524,8.421382,,,,
de:07314:2035:1:TrRiN,"Friesenh., Rheinfeldstr./Tor 3",49.499494,8.424868,,,,
de:07314:2035:5:TrRiS,"Friesenh., Rheinfeldstr./Tor 3",49.499173,8.425057,,,,
de:07314:2037:1:TrRiS,"Friesenheim, Rottstückerweg",49.502738,8.416064,,,,
de:07314:2037:4:TrRiN,"Friesenheim, Rottstückerweg",49.502738,8.416190,,,,
de:07314:2040:2:TrRiN,"Friesenheim, Schopenh. (AWETA)",49.497003,8.426808,,,,
de:07314:2040:4:TrRiS,"Friesenheim, Schopenh. (AWETA)",49.496752,8.426961,,,,
de:07314:2053:1:TrRiS,"Friesenheim, Ammoniakstraße",49.504925,8.410683,,,,
de:07314:2053:4:TrRiN,"Friesenheim, Ammoniakstraße",49.505357,8.410225,,,,
de:07314:2055:1:DB,"BASF, Bahnhof Süd",49.494132,8.438864,,,,
de:07314:2058:1:DB,"BASF, Bahnhof Nord",49.519950,8.427841,,,,
de:07314:2059:1:DB,"BASF, Bahnhof Mitte",49.510362,8.432009,,,,
de:07314:2060:1:TrRiN,"Ludwigshafen, BASF (Tor 1+2)",49.495013,8.432845,,,,
de:07314:2060:1:TrRiS,"Ludwigshafen, BASF (Tor 1+2)",49.494459,8.433680,,,,
de:07314:2061,"Edigheim, Friedhof",49.530259,8.394172,,,,
de:07314:2063:0:RIN,"Ludwigshafen, BASF Tor 12",49.520953,8.413594,,,,
de:07314:2063:0:RiS,"Ludwigshafen, BASF Tor 12",49.520953,8.413468,,,,
de:07314:2066:1:TrRiN,"Ludwigshafen, Berliner Platz",49.479946,8.450811,,,,
de:07314:2066:1:TrRiS,"Ludwigshafen, Berliner Platz",49.479759,8.450811,,,,
de:07314:2066:2:Bus C,"Ludwigshafen, Berliner Platz",49.479887,8.451099,,,,
de:07314:2068:1:TrRiO,"Ludwigshafen, Bgm.-Kutterer-S.",49.477693,8.441325,,,,
de:07314:2068:3:TrRiW,"Ludwigshafen, Bgm.-Kutterer-S.",49.477529,8.441055,,,,
de:07314:2074:1:TrRiS,"Ludwigshafen, Gartenstraße",49.488647,8.440993,,,,
de:07314:2074:3:TrRiN,"Ludwigshafen, Gartenstraße",49.489126,8.440786,,,,
de:07314:2080:12:5,"Ludwigshafen, Hauptbahnhof",49.476601,8.433519,,de:07314:2080_Parent,,
de:07314:2080:12:6,"Ludwigshafen, Hauptbahnhof",49.476735,8.432926,,de:07314:2080_Parent,,
de:07314:2080:13:7,"Ludwigshafen, Hauptbahnhof",49.476747,8.432845,,de:07314:2080_Parent,,
de:07314:2080:13:8,"Ludwigshafen, Hauptbahnhof",49.476776,8.432602,,de:07314:2080_Parent,,
de:07314:2080:14:2,"Ludwigshafen, Hauptbahnhof",49.477570,8.433950,,de:07314:2080_Parent,,
de:07314:2080:1:TrRiN,"Ludwigshafen, Hauptbahnhof",49.479134,8.434920,,de:07314:2080_Parent,,
de:07314:2080:1:TrRiS,"Ludwigshafen, Hauptbahnhof",49.479070,8.434821,,de:07314:2080_Parent,,
de:07314:2080:3:1,"Ludwigshafen, Hauptbahnhof",49.477675,8.434058,,de:07314:2080_Parent,,
de:07314:2080:8:10,"Ludwigshafen, Hauptbahnhof",49.477010,8.432378,,de:07314:2080_Parent,,
de:07314:2080:8:9,"Ludwigshafen, Hauptbahnhof",49.476992,8.432584,,de:07314:2080_Parent,,
de:07314:2080:9:3,"Ludwigshafen, Hauptbahnhof",49.476374,8.433797,,de:07314:2080_Parent,,
de:07314:2080:9:4,"Ludwigshafen, Hauptbahnhof",49.476554,8.433582,,de:07314:2080_Parent,,
de:07314:2080_Parent,"Ludwigshafen, Hauptbahnhof",49.476992,8.433321,1,,,
de:07314:2081:0:TrRiO,"Ludwigshafen, Hauptfriedhof",49.483920,8.424059,,,,
de:07314:2081:0:TrRiW,"Ludwigshafen, Hauptfriedhof",49.484078,8.423296,,,,
de:07314:2083:0:TrRiO,"Ludwigshafen, He.-Pesch-Haus",49.483634,8.413792,,,,
de:07314:2083:0:TrRiW,"Ludwigshafen, He.-Pesch-Haus",49.483617,8.413091,,,,
de:07314:2084:1:TrRiN,"Ludwigshafen, Hemshofstraße",49.492154,8.436833,,,,
de:07314:2084:4:TrRiS,"Ludwigshafen, Hemshofstraße",49.492166,8.436896,,,,
de:07314:2086:0:NBus,"Ludwigshafen, K.-Wilhelm-Str.",49.481224,8.447838,,,,
de:07314:2086:0:RiN,"Ludwigshafen, K.-Wilhelm-Str.",49.481696,8.448781,,,,
de:07314:2086:0:RiS,"Ludwigshafen, K.-Wilhelm-Str.",49.481743,8.448808,,,,
de:07314:2089:0:TrRiN,"Ludwigshafen, Ludwigstraße",49.483360,8.448062,,,,
de:07314:2089:0:TrRiS,"Ludwigshafen, Ludwigstraße",49.482875,8.448583,,,,
de:07314:2093:1:TrRiN,"Ludwigshafen, Pfalzb./W.Hack.",49.480115,8.445736,,,,
de:07314:2093:1:TrRiS,"Ludwigshafen, Pfalzb./W.Hack.",49.480074,8.445601,,,,
de:07314:2093:2:BuRiS,"Ludwigshafen, Pfalzb./W.Hack.",49.480103,8.445583,,,,
de:07314:2096:5:Bus,"Ludwigshafen, Rathaus",49.484159,8.441038,,,,
de:07314:2096:6:TrRiN,"Ludwigshafen, Rathaus",49.485233,8.443391,,,,
de:07314:2096:6:TrRiS,"Ludwigshafen, Rathaus",49.485146,8.443427,,,,
de:07314:2097:0:BuRiS,"Ludwigshafen, Rhein-Galerie",49.484510,8.447739,,,,
de:07314:2100:1:TrRiN,"Ludwigshafen, Rohrlachstraße",49.483179,8.429324,,,,
de:07314:2100:1:TrRiS,"Ludwigshafen, Rohrlachstraße",49.483109,8.429647,,,,
de:07314:2104:2:TrRiN,"Ludwigshafen, Schützenstraße",49.477232,8.448673,,,,
de:07314:2104:2:TrRiS,"Ludwigshafen, Schützenstraße",49.477249,8.448619,,,,
de:07314:2108:1:TrRiN,"Ludwigshafen, Südwest-Stadion",49.472311,8.439834,,,,
de:07314:2108:3:TrRiS,"Ludwigshafen, Südwest-Stadion",49.472322,8.439780,,,,
de:07314:2111:1:TrRiN,"Ludwigshafen, Wittelsbachplatz",49.475714,8.444128,,,,
de:07314:2111:1:TrRiS,"Ludwigshafen, Wittelsbachplatz",49.475726,8.444065,,,,
de:07314:2125:1:TrRiN,"Mundenheim, Am Schwanen",49.462964,8.429207,,,,
de:07314:2125:1:TrRiS,"Mundenheim, Am Schwanen",49.462958,8.429117,,,,
de:07314:2127:3:2,"LU-Mundenheim, Bahnhof",49.461207,8.420825,,,,
de:07314:2127:3:4,"LU-Mundenheim, Bahnhof",49.461166,8.420951,,,,
de:07314:2132:1:TrRiN,"Mundenheim, Giulini",49.453616,8.425533,,,,
de:07314:2132:1:TrRiS,"Mundenheim, Giulini",49.453634,8.425479,,,,
de:07314:2133:1:TrRiN,"Mundenheim, Stifterstraße",49.468429,8.435154,,,,
de:07314:2133:1:TrRiS,"Mundenheim, Stifterstraße",49.468446,8.435118,,,,
de:07314:2134:1:TrRiN,"Mundenheim, Hoheneckenstraße",49.456617,8.426656,,,,
de:07314:2134:1:TrRiS,"Mundenheim, Hoheneckenstraße",49.456647,8.426611,,,,
de:07314:2139:1:TrRiN,"Mundenheim, Nord",49.465913,8.432225,,,,
de:07314:2139:1:TrRiS,"Mundenheim, Nord",49.465953,8.432216,,,,
de:07314:2141:1:TrRiN,"Mundenheim, Schillerschule",49.459928,8.427725,,,,
de:07314:2141:1:TrRiS,"Mundenheim, Schillerschule",49.459911,8.427662,,,,
de:07314:2142:0:TrRiN,"Oggersheim, Wollstraße",49.485490,8.397595,,,,
de:07314:2142:0:TrRiS,"Oggersheim, Wollstraße",49.485840,8.396975,,,,
de:07314:2148:1:1,"LU-Oggersheim, Bahnhof",49.493268,8.381255,,,,
de:07314:2148:3:2,"LU-Oggersheim, Bahnhof",49.492819,8.382539,,,,
de:07314:2154:0:TrRiN,"Oggersheim, Hans-Warsch-Pl.",49.492761,8.376152,,,,
de:07314:2154:0:TrRiS,"Oggersheim, Hans-Warsch-Pl.",49.492516,8.376503,,,,
de:07314:2157:0:TrRiN,"Oggersheim, Mannheimer Tor",49.491121,8.378757,,,,
de:07314:2157:0:TrRiS,"Oggersheim, Mannheimer Tor",49.490870,8.378964,,,,
de:07314:2165:0:TrRiO,"Oggersheim, Wilhelm-Tell-Str.",49.490596,8.370744,,,,
de:07314:2165:0:TrRiW,"Oggersheim, Wilhelm-Tell-Str.",49.490415,8.369972,,,,
de:07314:2166:0:TrRiO,"Oggersheim, Zum Guten Hirten",49.488163,8.387920,,,,
de:07314:2166:0:TrRiW,"Oggersheim, Zum Guten Hirten",49.488355,8.386851,,,,
de:07314:2176:0:TrRiN,"Oppau, Süd (BASF Q 920)",49.512438,8.407917,,,,
de:07314:2176:0:TrRiS,"Oppau, Süd (BASF Q 920)",49.512543,8.407917,,,,
de:07314:2179:2:BuRiN,"Edigheim, Ostringplatz",49.533728,8.389321,,,,
de:07314:2179:3:BuRiO,"Edigheim, Ostringplatz",49.532860,8.390965,,,,
de:07314:2181:1:TrAus,"Oppau, Endstelle",49.518031,8.410297,,,,
de:07314:2181:1:TrRiS,"Oppau, Endstelle",49.517967,8.410180,,,,
de:07314:2181:2:A,"Oppau, Endstelle",49.518393,8.409947,,,,
de:07314:2189:1:2,"LU Rheingönheim, Bahnhof",49.446818,8.408995,,,,
de:07314:2189:1:4,"LU Rheingönheim, Bahnhof",49.446777,8.409111,,,,
de:07314:2191:0:TrRiN,"Rheingönheim, Brückweg",49.446468,8.425811,,,,
de:07314:2191:0:TrRiS,"Rheingönheim, Brückweg",49.446146,8.425883,,,,
de:07314:2192:1:TrRiN,"Rheingönheim, Friedensstraße",49.449154,8.424167,,,,
de:07314:2192:1:TrRiS,"Rheingönheim, Friedensstraße",49.449365,8.423925,,,,
de:07314:2197:1:Tram,"Rheingönheim, Endstelle",49.443664,8.419370,,,,
de:07314:2203:1:TrRiO,Ruchheim,49.478498,8.327553,,,,
de:07314:2203:1:TrRiW,Ruchheim,49.478562,8.327859,,,,
de:07314:4743,"Oppau, Friedhof",49.521892,8.408698,,,,
de:07314:5700:0:TrRIO,"Oggersheim, Endstelle",49.488565,8.364402,,,,
de:07314:5700:0:TrRIW,"Oggersheim, Endstelle",49.488565,8.364348,,,,
de:07314:6649:1:TrRiO,"Oggersheim, Westlich B9",49.483494,8.354314,,,,
de:07314:6649:1:TrRiW,"Oggersheim, Westlich B9",49.483348,8.353712,,,,
de:07315:8018:1:1,"Mainz, Römisches Theater",49.993377,8.278389,,,,
de:07315:8018:3:2,"Mainz, Römisches Theater",49.993343,8.278362,,,,
de:07315:8018:4:4,"Mainz, Römisches Theater",49.993216,8.278281,,,,
de:07315:8181:1:1,"Laubenheim, Bahnhof",49.961067,8.314088,,,,
de:07315:8181:3:2,"Laubenheim, Bahnhof",49.961061,8.314141,,,,
de:07315:9037:1:1,"Mainz, Hauptbahnhof",50.001646,8.258554,,de:07315:9037_Parent,,
de:07315:9037:1:11,"Mainz, Hauptbahnhof",50.002848,8.257709,,de:07315:9037_Parent,,
de:07315:9037:4:2,"Mainz, Hauptbahnhof",50.001623,8.258500,,de:07315:9037_Parent,,
de:07315:9037:4:3,"Mainz, Hauptbahnhof",50.001566,8.258338,,de:07315:9037_Parent,,
de:07315:9037:6:6,"Mainz, Hauptbahnhof",50.001467,8.258078,,de:07315:9037_Parent,,
de:07315:9037:6:8,"Mainz, Hauptbahnhof",50.001416,8.257943,,de:07315:9037_Parent,,
de:07315:9037_Parent,"Mainz, Hauptbahnhof",50.001450,8.258419,1,,,
de:07316:3135:1:1,"Mußbach, Bahnhof",49.372109,8.168821,,,,
de:07316:3135:2:2,"Mußbach, Bahnhof",49.372150,8.168758,,,,
de:07316:3144:1:2,"Neustadt, Hauptbahnhof",49.349660,8.141494,,de:07316:3144_Parent,,
de:07316:3144:1:3,"Neustadt, Hauptbahnhof",49.349549,8.141476,,de:07316:3144_Parent,,
de:07316:3144:5:1,"Neustadt, Hauptbahnhof",49.349701,8.141494,,de:07316:3144_Parent,,
de:07316:3144:5:1a,"Neustadt, Hauptbahnhof",49.349754,8.142195,,de:07316:3144_Parent,,
de:07316:3144:6:4,"Neustadt, Hauptbahnhof",49.349514,8.141476,,de:07316:3144_Parent,,
de:07316:3144:6:5,"Neustadt, Hauptbahnhof",49.349408,8.141458,,de:07316:3144_Parent,,
de:07316:3144_Parent,"Neustadt, Hauptbahnhof",49.350040,8.139967,1,,,
de:07316:3145:1:1,"Neustadt, Böbig",49.354219,8.158140,,,,
de:07316:3145:3:2,"Neustadt, Böbig",49.353522,8.157260,,,,
de:07316:3145:3:3,"Neustadt, Böbig",49.353458,8.157359,,,,
de:07316:7905:1:1,"Neustadt, Süd",49.340747,8.156873,,,,
de:07316:7905:3:2,"Neustadt, Süd",49.341747,8.157134,,,,
de:07318:3603:1:1,"Speyer, Hbf/ZOB",49.324385,8.428084,,de:07318:3603_Parent,,
de:07318:3603:3:11,"Speyer, Hbf/ZOB Bstg 11",49.325725,8.428317,,de:07318:3603_Parent,,Bstg 11
de:07318:3603:4:2,"Speyer, Hbf/ZOB",49.324279,8.428048,,de:07318:3603_Parent,,
de:07318:3603:4:3,"Speyer, Hbf/ZOB",49.324273,8.427877,,de:07318:3603_Parent,,
de:07318:3603_Parent,"Speyer, Hbf/ZOB",49.323869,8.427823,1,,,
de:07318:3618:0:3,"Speyer, Domplatz",49.316193,8.441711,,,,
de:07318:3625:0:Fähre,"Speyer, Alte Rheinhäuser Str.",49.285580,8.470098,,,,
de:07318:3637:0:RiN,"Speyer, Hirschgraben",49.322060,8.429674,,,,
de:07318:3637:0:RiS,"Speyer, Hirschgraben",49.321802,8.429575,,,,
de:07318:3650:1:1,"Speyer, Nord/West",49.333482,8.419505,,,,
de:07318:3650:2:2,"Speyer, Nord/West",49.333506,8.419541,,,,
de:07318:3686:0:RiO,"Speyer, Stadthalle",49.318512,8.424311,,,,
de:07318:3686:0:RiW,"Speyer, Stadthalle",49.318547,8.424032,,,,
de:07319:4364:1:1,"Pfeddersheim, Bahnhof",49.634676,8.280212,,,,
de:07319:4364:2:2,"Pfeddersheim, Bahnhof",49.634618,8.280212,,,,
de:07319:4415:1:1,"Worms, Hauptbahnhof",49.634642,8.356596,,de:07319:4415_Parent,,
de:07319:4415:4:2,"Worms, Hauptbahnhof",49.634642,8.356533,,de:07319:4415_Parent,,
de:07319:4415:4:3,"Worms, Hauptbahnhof",49.634653,8.356371,,de:07319:4415_Parent,,
de:07319:4415:5:4,"Worms, Hauptbahnhof",49.634653,8.356317,,de:07319:4415_Parent,,
de:07319:4415:5:5,"Worms, Hauptbahnhof",49.634665,8.356156,,de:07319:4415_Parent,,
de:07319:4415_Parent,"Worms, Hauptbahnhof",49.635113,8.356955,1,,,
de:07331:1036:1:DB,"Gundersheim, Bahnhof",49.690219,8.196067,,,,
de:07331:15:1:1,"Alsheim, Bahnhof",49.765307,8.342492,,,,
de:07331:15:2:2,"Alsheim, Bahnhof",49.765302,8.342555,,,,
de:07331:1635:1:DB,"Hohen-Sülzen, Bahnhof",49.621375,8.213979,,,,
de:07331:2850:2:1,"Mettenheim, Bahnhof",49.740356,8.334345,,,,
de:07331:2850:3:2,"Mettenheim, Bahnhof",49.740351,8.334380,,,,
de:07331:2862:1:1,"Monsheim, Bahnhof",49.633373,8.208643,,,,
de:07331:2862:2:2,"Monsheim, Bahnhof",49.633338,8.208616,,,,
de:07331:2862:2:3,"Monsheim, Bahnhof",49.633263,8.208562,,,,
de:07331:3235:1:DB,"Flörsheim-Dalsheim, Bhf",49.656989,8.204340,,,,
de:07331:3295:1:2,"Osthofen, Bahnhof",49.705767,8.325829,,,,
de:07331:3295:1:3,"Osthofen, Bahnhof",49.705796,8.325981,,,,
de:07331:3295:3:1,"Osthofen, Bahnhof",49.705756,8.325784,,,,
de:07331:3935:1:DB,"Wahlheim, Bahnhof",49.718970,8.099615,,,,
de:07331:4755:1:DB,"Alzey, Südbahnhof",49.737994,8.118884,,,,
de:07331:5255:1:DB,"Freimersheim/Az, Bahnhof",49.710693,8.086472,,,,
de:07331:55:1:1,"Alzey, Bahnhof",49.750352,8.110035,,de:07331:55_Parent,,
de:07331:55:2:2,"Alzey, Bahnhof",49.750370,8.109990,,de:07331:55_Parent,,
de:07331:55:2:3,"Alzey, Bahnhof",49.750416,8.109882,,de:07331:55_Parent,,
de:07331:55:3:4,"Alzey, Bahnhof",49.750439,8.109829,,de:07331:55_Parent,,
de:07331:55_Parent,"Alzey, Bahnhof",49.750143,8.109532,1,,,
de:07331:6936:1:DB,"Alzey, Westbahnhof",49.740844,8.107466,,,,
de:07331:700:2:1,"Eppelsheim, Bahnhof",49.700277,8.162623,,,,
de:07331:700:3:2,"Eppelsheim, Bahnhof",49.700242,8.162569,,,,
de:07331:8001:1:1,"Armsheim, Bahnhof",49.808046,8.074309,,,,
de:07331:8001:3:2,"Armsheim, Bahnhof",49.808075,8.074390,,,,
de:07331:8002:1:DB,"Wallertheim, Bahnhof",49.832511,8.049660,,,,
de:07331:8003:1:DB,"Gau-Bickelheim, Bahnhof",49.840228,8.020635,,,,
de:07331:8013:1:2,"Albig, Bahnhof",49.771521,8.116539,,,,
de:07331:8013:2:1,"Albig, Bahnhof",49.771527,8.116593,,,,
de:07332:1003:1:DB,"Asselheim, Bahnhof",49.576071,8.160970,,,,
de:07332:1009:2:4,"Grünstadt, Bahnhof",49.564513,8.167734,,,,
de:07332:1009:3:5,"Grünstadt, Bahnhof",49.564531,8.167788,,,,
de:07332:1009:3:7,"Grünstadt, Bahnhof",49.564566,8.167932,,,,
de:07332:1012:1:DB,"Grünstadt, Bahnhof Nord",49.573357,8.170779,,,,
de:07332:1080:1:1,"Haßloch, Bahnhof",49.371811,8.252104,,,,
de:07332:1080:3:2,"Haßloch, Bahnhof",49.371857,8.252086,,,,
de:07332:1080:3:3,"Haßloch, Bahnhof",49.371945,8.252050,,,,
de:07332:116:2:Tram,"Bad Dürkheim, Bahnhof",49.461452,8.170438,,de:07332:116_Parent,,
de:07332:116:5:2,"Bad Dürkheim, Bahnhof",49.460827,8.171103,,de:07332:116_Parent,,
de:07332:116:5:3,"Bad Dürkheim, Bahnhof",49.460769,8.171148,,de:07332:116_Parent,,
de:07332:116:6:1,"Bad Dürkheim, Bahnhof",49.460868,8.171067,,de:07332:116_Parent,,
de:07332:116_Parent,"Bad Dürkheim, Bahnhof",49.460979,8.170447,1,,,
de:07332:134,"Bad Dürkheim, Ost",49.463321,8.184793,,,,
de:07332:144:1:DB,"Bad Dürkheim, Trift",49.466275,8.192878,,,,
de:07332:1553:1:DB,"Herxheim a.B., Bahnhof",49.509283,8.189976,,,,
de:07332:1685:1:DB,"Kirchheim/Wstr., Bahnhof",49.537051,8.181900,,,,
de:07332:1730:1:2,"Lambrecht, Bahnhof",49.373238,8.074264,,,,
de:07332:1730:1:3,"Lambrecht, Bahnhof",49.373320,8.074264,,,,
de:07332:2845:1:DB,"Mertesheim, Bahnhof",49.569133,8.133769,,,,
de:07332:3062:1:1,"Neidenfels, Bahnhof",49.386344,8.045285,,,,
de:07332:3062:2:2,"Neidenfels, Bahnhof",49.386338,8.045231,,,,
de:07332:3263:1:DB,"Albsheim, Bahnhof",49.580912,8.179143,,,,
de:07332:3895:1:DB,"Wachenheim/Wstr, Bahnhof",49.439651,8.191054,,,,
de:07332:391:1:DB,"Bockenheim-Kindenheim, Bahnhof",49.606864,8.187991,,,,
de:07332:4065:1:2,"Weidenthal, Bahnhof",49.417520,7.994512,,,,
de:07332:4065:3:1,"Weidenthal, Bahnhof",49.417596,7.994548,,,,
de:07332:4205:1:2,"Weisenheim/S, Bahnhof",49.513885,8.250181,,,,
de:07332:4205:3:1,"Weisenheim/S, Bahnhof",49.513838,8.250172,,,,
de:07332:470:1:2,"Deidesheim, Bahnhof",49.408537,8.192797,,,,
de:07332:470:5:1,"Deidesheim, Bahnhof",49.408560,8.192716,,,,
de:07332:609:1:DB,"Ebertsheim, Bahnhof",49.564012,8.108508,,,,
de:07332:656:0:TrRiO,"Ellerstadt, Ost Bstg G1",49.464039,8.264294,,,,Bstg G1
de:07332:656:0:TrRiW,"Ellerstadt, Ost Bstg G2",49.464103,8.264608,,,,Bstg G2
de:07332:658:0:TrRiO,"Ellerstadt, West Bstg G1",49.462579,8.254871,,,,Bstg G1
de:07332:658:0:TrRiW,"Ellerstadt, West Bstg G2",49.462626,8.255113,,,,Bstg G2
de:07332:705:1:DB,"Erpolzheim, Bahnhof",49.488758,8.210557,,,,
de:07332:840:1:10,"Freinsheim, Bahnhof",49.501162,8.205535,,,,
de:07332:840:3:1,"Freinsheim, Bahnhof",49.501034,8.205418,,,,
de:07332:840:3:2,"Freinsheim, Bahnhof",49.501092,8.205239,,,,
de:07332:856:0:TrRiO,"Friedelsheim, Bahnhof Bstg G1",49.457996,8.224912,,,,Bstg G1
de:07332:856:0:TrRiW,"Friedelsheim, Bahnhof Bstg G2",49.457966,8.225100,,,,Bstg G2
de:07332:940:0:TrRiO,"Gönnheim, Bahnhof Bstg G1",49.458206,8.232889,,,,Bstg G1
de:07332:940:0:TrRiW,"Gönnheim, Bahnhof Bstg G2",49.457890,8.231335,,,,Bstg G2
de:07333:3798:1:DB,"Eisenberg (Pfalz), Bahnhof",49.554671,8.070878,,,,
de:07333:5000:1:DB,"Ramsen (Pfalz), Bahnhof",49.535203,8.022800,,,,
de:07333:5566:1:1,"Kirchheimbol., Schlossg.",49.668380,8.016583,,,,
de:07333:8173:1:2,"Rockenhausen, Bahnhof",49.628591,7.817256,,,,
de:07333:8173:3:1,"Rockenhausen, Bahnhof",49.628591,7.817319,,,,
de:07334:1714:1:1,Wörth (Rhein) Alte Bahnmeisterei,49.048742,8.266225,,,1,
de:07334:1714:1:2,Wörth (Rhein) Alte Bahnmeisterei,49.048442,8.266737,,,1,
de:07334:1721:1:1,Maximiliansau Eisenbahnstraße Gleis 1,49.037307,8.297900,,,1,Gleis 1
de:07334:1721:2:2,Maximiliansau Eisenbahnstraße Gleis 2,49.037136,8.298969,,,1,Gleis 2
de:07334:1723:1:1,Maximiliansau West Gleis 1,49.038832,8.292124,,,1,Gleis 1
de:07334:1723:2:2,Maximiliansau West Gleis 2,49.038868,8.292151,,,1,Gleis 2
de:07334:1723:3:31,Maximiliansau West,49.038767,8.291189,,,,
de:07334:1724:1:1,Maximiliansau Im Rüsten,49.034881,8.279422,,,,
de:07334:1725:1:1,Hagenbach,49.016361,8.253218,,,,
de:07334:1731:1:1,Wörth (Rhein),49.045999,8.272711,,de:07334:1731_Parent,,
de:07334:1731:2:2,Wörth (Rhein),49.045957,8.272675,,de:07334:1731_Parent,,
de:07334:1731:2:3,Wörth (Rhein),49.045875,8.272585,,de:07334:1731_Parent,,
de:07334:1731:3:4,Wörth (Rhein),49.045840,8.272550,,de:07334:1731_Parent,,
de:07334:1731:3:5,Wörth (Rhein),49.045769,8.272478,,de:07334:1731_Parent,,
de:07334:1731:4:11,Wörth (Rhein),49.046146,8.272684,,de:07334:1731_Parent,,
de:07334:1731_Parent,Wörth (Rhein),49.045745,8.273062,1,,,
de:07334:1734:1:1,Wörth (Rhein) Bienwaldhalle,49.049943,8.260368,,,1,
de:07334:1734:2:2,Wörth (Rhein) Bienwaldhalle,49.049649,8.261311,,,1,
de:07334:1735:1:1,Wörth (Rhein) Bürgerpark,49.050880,8.254125,,,,
de:07334:1735:2:2,Wörth (Rhein) Bürgerpark,49.050815,8.255059,,,,
de:07334:1736:1:1,Wörth (Rhein) Rathaus,49.052345,8.249804,,,,
de:07334:1736:2:11,Wörth (Rhein) Rathaus,49.052557,8.249975,,,,
de:07334:1738:1:1,Wörth (Rhein) Badepark,49.058486,8.244118,,,,
de:07334:1739:1:1,Wörth (Rhein) Badallee,49.055978,8.249921,,,,
de:07334:1740:1:1,Wörth Mozartstraße,49.054995,8.252203,,,,
de:07334:1741:1:1,Wörth (Rhein) Zügelstraße Gleis 1,49.053152,8.262147,,,1,Gleis 1
de:07334:1741:2:2,Wörth (Rhein) Zügelstraße Gleis 2,49.052487,8.261904,,,1,Gleis 2
de:07334:1743:1:1,Rheinzabern Alte Römerstraße Gleis 1,49.109537,8.273043,,,1,Gleis 1
de:07334:1743:2:2,Rheinzabern Alte Römerstraße Gleis 2,49.109537,8.272999,,,1,Gleis 2
de:07334:1743:3:91,Rheinzabern Alte Römerstr. (Ersatz),49.108590,8.273960,,,,
de:07334:1744:1:1,Rheinzabern Rappengasse Gleis 1,49.114870,8.273349,,,1,Gleis 1
de:07334:1744:2:2,Rheinzabern Rappengasse Gleis 2,49.114071,8.273169,,,1,Gleis 2
de:07334:1744:6:92,Rheinzabern Rappengasse (Ersatzhalt),49.114570,8.271705,,,,
de:07334:1745:1:1,Rülzheim Freizeitzentrum Gleis 1,49.152170,8.279466,,,1,Gleis 1
de:07334:1745:2:2,Rülzheim Freizeitzentrum Gleis 2,49.150848,8.279215,,,1,Gleis 2
de:07334:1745:3:92,Rülzheim Freizeitzentrum (Ersatzhalt),49.151700,8.279556,,,,
de:07334:1746:1:1,Bellheim Am Mühlbuckel Gleis 1,49.192148,8.296544,,,1,Gleis 1
de:07334:1746:2:2,Bellheim Am Mühlbuckel Gleis 2,49.193052,8.299068,,,1,Gleis 2
de:07334:1747:1:2,Germersheim Süd/Nolte Gleis 2,49.208425,8.374293,,,1,Gleis 2
de:07334:1747:2:1,Germersheim Süd/Nolte Gleis 1,49.208225,8.373017,,,1,Gleis 1
de:07334:1748:1:3,Germersheim Mitte / Rhein Gleis 3,49.220648,8.379260,,de:07334:1748_Parent,1,Gleis 3
de:07334:1748:2:2,Germersheim Mitte/Rhein Gleis 2,49.220607,8.378991,,de:07334:1748_Parent,1,Gleis 2
de:07334:1748:3:1,Germersheim Mitte/Rhein Gleis 1,49.219116,8.379638,,de:07334:1748_Parent,1,Gleis 1
de:07334:1748:4:92,Germersheim Mitte,49.219991,8.376880,,de:07334:1748_Parent,,
de:07334:1748_Parent,Germersheim Mitte / Rhein,49.220114,8.379314,1,,,
de:07334:1752:1:1,Wörth Ottstraße,49.051986,8.268247,,,,
de:07334:1753:1:1,Wörth Wasserturm,49.048566,8.257566,,,,
de:07334:1753:1:2,Wörth Wasserturm,49.048648,8.257476,,,,
de:07334:1754:1:1,Wörth Silcherstraße,49.056119,8.245358,,,,
de:07334:1755:1:1,Wörth Richard-Wagner-Str.,49.053258,8.241656,,,,
de:07334:1762:1:92,Jockgrim Bürgerpark,49.092916,8.273771,,,,
de:07334:32429:0:1,Wörth Dorschbergstraße,49.050214,8.251565,,,,
de:07334:32429:0:2,Wörth Dorschbergstraße,49.050196,8.251448,,,,
de:07334:32431:0:1,Wörth Berufsschule,49.051350,8.247379,,,,
de:07334:32451:1:1,Rülzheim Gleis 1,49.160771,8.290273,,,1,Gleis 1
de:07334:32451:2:92,Rülzheim,49.160747,8.290444,,,,
de:07334:32451:4:2,Rülzheim Gleis 2,49.160806,8.290237,,,,Gleis 2
de:07334:32465:1:1,Neuburg (Rhein),48.992212,8.238333,,,,
de:07334:32490:1:1,Kandel (Pfalz) Gleis 1,49.079172,8.198393,,,,Gleis 1
de:07334:32490:1:2,Kandel (Pfalz) Gleis 2,49.079119,8.198412,,,,Gleis 2
de:07334:32627:0:1,Sondernheim Willi-Gutting-Str.,49.193680,8.360728,,,,
de:07334:32636:0:2,Germersheim Wasserturm,49.212703,8.366361,,,,
de:07334:32637:1:2,Germersheim,49.225963,8.364815,,de:07334:32637_Parent,,
de:07334:32637:1:3,Germersheim,49.225916,8.364708,,de:07334:32637_Parent,,
de:07334:32637:2:11,Germersheim,49.224755,8.365435,,de:07334:32637_Parent,,
de:07334:32637:4:4,Germersheim,49.225893,8.364654,,de:07334:32637_Parent,,
de:07334:32637:4:5,Germersheim,49.225840,8.364537,,de:07334:32637_Parent,,
de:07334:32637_Parent,Germersheim,49.225588,8.365076,1,,,
de:07334:32660:1:1,Bellheim Gleis 1,49.188584,8.294477,,,,Gleis 1
de:07334:32660:2:11,Bellheim,49.189377,8.294307,,,,
de:07334:32660:4:2,Bellheim Gleis 2,49.188578,8.294603,,,,Gleis 2
de:07334:33058:1:1,Steinweiler Bahnhof,49.120973,8.130732,,,,
de:07334:33058:2:2,Steinweiler Bahnhof,49.120985,8.130670,,,,
de:07334:35000:1:1,Winden (Pfalz),49.095769,8.122522,,,,
de:07334:35000:3:2,Winden (Pfalz),49.095763,8.122576,,,,
de:07334:35000:3:3,Winden (Pfalz),49.095739,8.122737,,,,
de:07334:35001:1:1,Lingenfeld Bahnhof Gleis 1,49.252902,8.349499,,,,Gleis 1
de:07334:35001:4:2,Lingenfeld Bahnhof Gleis 2,49.252902,8.349562,,,,Gleis 2
de:07334:35002:1:1,Sondernheim Gleis 1,49.195201,8.360351,,,,Gleis 1
de:07334:35002:4:2,Sondernheim Gleis 2,49.195476,8.360270,,,,Gleis 2
de:07334:35003:1:1,Rheinzabern Gleis 1,49.119797,8.274265,,,,Gleis 1
de:07334:35003:3:12,Rheinzabern,49.119151,8.274220,,,,
de:07334:35003:4:2,Rheinzabern Gleis 2,49.119803,8.274211,,,,Gleis 2
de:07334:35004:1:1,Jockgrim Gleis 1,49.092580,8.272307,,,,Gleis 1
de:07334:35004:3:91,Jockgrim,49.092851,8.272846,,,,
de:07334:35004:4:2,Jockgrim Gleis 2,49.091151,8.272181,,,,Gleis 2
de:07334:35129:1:1,Berg (Pfalz),48.980675,8.212758,,,,
de:07334:39007,Leimersheim Fähre,49.116011,8.361734,,,,
de:07335:8121:1:2,"Bruchmühlbach-Miesau, Bahnhof",49.385444,7.444671,,,,
de:07335:8121:3:1,"Bruchmühlbach-Miesau, Bahnhof",49.385414,7.444689,,,,
de:07335:8122:1:1,"Hauptstuhl, Bahnhof",49.402084,7.492497,,,,
de:07335:8122:2:2,"Hauptstuhl, Bahnhof",49.402113,7.492488,,,,
de:07335:8123:1:1,"Landstuhl, Bahnhof",49.416287,7.566294,,,,
de:07335:8123:3:2,"Landstuhl, Bahnhof",49.416339,7.567013,,,,
de:07335:8124:1:1,"Kindsbach, Bahnhof",49.419612,7.613932,,,,
de:07335:8124:1:2,"Kindsbach, Bahnhof",49.419694,7.613878,,,,
de:07335:8170:1:22,"Enkenbach, Bahnhof",49.490602,7.899353,,,,
de:07335:8170:1:23,"Enkenbach, Bahnhof",49.490625,7.899506,,,,
de:07335:9115:1:2,"Frankenstein, Bahnhof",49.438892,7.970159,,,,
de:07335:9115:3:1,"Frankenstein, Bahnhof",49.438921,7.970159,,,,
de:07335:9117:1:2,"Hochspeyer, Bahnhof",49.444067,7.903737,,,,
de:07335:9117:2:3,"Hochspeyer, Bahnhof",49.444015,7.903755,,,,
de:07335:9117:2:4,"Hochspeyer, Bahnhof",49.443933,7.903782,,,,
de:07337:2715:1:DB,"Barbelroth, Bahnhof",49.104109,8.070123,,,,
de:07337:4561:1:1,"Bad Bergzabern, Bahnhof",49.103215,8.003127,,,,
de:07337:5654:1:DB,Kapellen-Drusweiler,49.105620,8.030903,,,,
de:07337:7901:1:DB,"Annweiler-Sarnstall, Bahnhof",49.208472,7.937280,,,,
de:07337:8052:1:DB,"Siebeldingen-Birkw., Bahnhof",49.209328,8.042446,,,,
de:07337:8053:1:DB,"Albersweiler, Bahnhof",49.218512,8.024273,,,,
de:07337:8054:1:1,"Annweiler, Bahnhof",49.205520,7.966673,,,,
de:07337:8054:2:2,"Annweiler, Bahnhof",49.205672,7.967023,,,,
de:07337:8054:2:3,"Annweiler, Bahnhof",49.205737,7.966978,,,,
de:07337:8055:1:DB,"Rinnthal, Bahnhof",49.217028,7.928072,,,,
de:07337:8300:1:1,"Maikammer-Kirrweiler, Bahnhof",49.305036,8.146965,,,,
de:07337:8300:2:2,"Maikammer-Kirrweiler, Bahnhof",49.306225,8.147360,,,,
de:07337:8301:1:1,"Edenkoben, Bahnhof",49.281619,8.140461,,,,
de:07337:8301:2:2,"Edenkoben, Bahnhof",49.281613,8.140515,,,,
de:07337:8302:1:RiS,"Edesheim, Bahnhof",49.263285,8.139491,,,,
de:07337:8302:2:RiN,"Edesheim, Bahnhof",49.264246,8.138673,,,,
de:07337:8303:1:RiS,"Knöringen-Essingen, Bahnhof",49.237074,8.148205,,,,
de:07337:8303:2:RiN,"Knöringen-Essingen, Bahnhof",49.237907,8.148286,,,,
de:07337:8305:1:RiN,"Insheim, Bahnhof",49.157939,8.152265,,,,
de:07337:8305:2:RiS,"Insheim, Bahnhof",49.156359,8.151951,,,,
de:07337:8306:1:RiN,"Rohrbach/Pf, Bahnhof",49.138572,8.141943,,,,
de:07337:8306:2:RiS,"Rohrbach/Pf, Bahnhof",49.137602,8.141270,,,,
de:07338:1745:1:DB,"Lambsheim, Bahnhof",49.511802,8.283464,,,,
de:07338:1917:1:3,"Limburgerhof, Bahnhof",49.424099,8.390588,,,,
de:07338:1917:3:4,"Limburgerhof, Bahnhof",49.424082,8.390642,,,,
de:07338:2810:0:TrRiO,"Maxdorf, Bahnhof",49.480103,8.293561,,,,
de:07338:2810:0:TrRiS,"Maxdorf, Bahnhof",49.480144,8.293831,,,,
de:07338:2814:0:TrRiO,"Maxdorf, Süd",49.476379,8.289267,,,,
de:07338:2814:0:TrRiS,"Maxdorf, Süd",49.476549,8.289267,,,,
de:07338:336:1:1,"Bobenheim, Bahnhof",49.587452,8.350371,,,,
de:07338:336:2:2,"Bobenheim, Bahnhof",49.587452,8.350308,,,,
de:07338:336:2:3,"Bobenheim, Bahnhof",49.587446,8.350173,,,,
de:07338:3391:1:2,Berghausen (Pfalz) Bahnhof,49.294761,8.405536,,,,
de:07338:3391:2:1,Berghausen (Pfalz) Bahnhof,49.296126,8.406883,,,,
de:07338:3393:1:1,"Heiligenstein, Bahnhof",49.286359,8.394810,,,,
de:07338:3393:2:2,"Heiligenstein, Bahnhof",49.285152,8.392897,,,,
de:07338:3430:1:1,"Schifferstadt, Bahnhof",49.393121,8.365462,,,,
de:07338:3430:4:2,"Schifferstadt, Bahnhof",49.393139,8.365408,,,,
de:07338:3430:4:3,"Schifferstadt, Bahnhof",49.393185,8.365274,,,,
de:07338:3434:1:1,"Schifferstadt, Südbahnhof",49.373946,8.377562,,,,
de:07338:3434:3:2,"Schifferstadt, Südbahnhof",49.374975,8.376458,,,,
de:07338:373:1:1,"Böhl-Iggelheim, Bahnhof",49.379941,8.305311,,,,
de:07338:373:2:2,"Böhl-Iggelheim, Bahnhof",49.379981,8.305293,,,,
de:07338:46,"Altrip, Goethestraße",49.431403,8.494676,,,,
de:07338:47,"Altrip, Ludwigsplatz",49.432361,8.501359,,,,
de:07338:48,"Altrip, Maxburgstraße",49.432016,8.490508,,,,
de:07338:50:0:Fähre,"Altrip, Fähre",49.441036,8.500551,,,,
de:07338:910:1:TrRiN,"Fußgönheim, Bahnhof Bstg G1",49.466491,8.287722,,,,Bstg G1
de:07338:910:1:TrRiW,"Fußgönheim, Bahnhof Bstg G2",49.466210,8.287345,,,,Bstg G2
de:07339:34233:1:1,"Dienheim, Bahnhof",49.841682,8.357189,,,,
de:07339:34233:2:2,"Dienheim, Bahnhof",49.841676,8.357243,,,,
de:07339:4849:1:1,"Bodenheim, Bahnhof",49.929821,8.312102,,,,
de:07339:4849:3:2,"Bodenheim, Bahnhof",49.929006,8.313252,,,,
de:07339:4849:3:3,"Bodenheim, Bahnhof",49.929081,8.313351,,,,
de:07339:8004:1:1,"Sprendlingen, Bahnhof",49.859059,7.981648,,,,
de:07339:8004:3:2,"Sprendlingen, Bahnhof",49.859018,7.981567,,,,
de:07339:8005:1:DB,Welgesheim-Zotzenheim,49.878432,7.956846,,,,
de:07339:8083:1:1,"Nackenheim, Bahnhof",49.919157,8.341630,,,,
de:07339:8083:3:2,"Nackenheim, Bahnhof",49.919180,8.341648,,,,
de:07339:8084:1:1,"Nierstein, Bahnhof",49.872348,8.342447,,,,
de:07339:8084:3:2,"Nierstein, Bahnhof",49.871838,8.342995,,,,
de:07339:8085:1:1,"Oppenheim, Bahnhof",49.857350,8.358123,,,,
de:07339:8085:3:3,"Oppenheim, Bahnhof",49.857391,8.358303,,,,
de:07339:8183:2:202,"Bingen, Hauptbahnhof",49.968683,7.882869,,,,
de:07339:8183:4:201,"Bingen, Hauptbahnhof",49.968717,7.882887,,,,
de:07339:8190:2:4,"Gensingen-Horrweiler, Bahnhof",49.899736,7.938726,,,,
de:07339:8199:2:1,"Bingen, Stadtbahnhof",49.969757,7.903962,,de:07339:8199_Parent,,
de:07339:8199:3:2,"Bingen, Stadtbahnhof",49.969792,7.903971,,de:07339:8199_Parent,,
de:07339:8199:3:3,"Bingen, Stadtbahnhof",49.969890,7.903980,,de:07339:8199_Parent,,
de:07339:8199:4:44,"Bingen, Stadtbahnhof",49.969648,7.904986,,de:07339:8199_Parent,,
de:07339:8199_Parent,"Bingen, Stadtbahnhof",49.969798,7.902731,1,,,
de:07339:9120:1:1,"Guntersblum, Bahnhof",49.791835,8.351215,,,,
de:07339:9120:3:2,"Guntersblum, Bahnhof",49.791840,8.351152,,,,
de:07340:16500:1:DB,Moosbachtal,49.165893,7.755102,,,,
de:07340:3741:1:DB,Bruchweiler-Bärenbach,49.114958,7.801913,,,,
de:07340:3747:1:DB,"Dahn, Süd",49.148468,7.777281,,,,
de:07340:3772:1:DB,"Dahn, Bahnhof",49.154432,7.771406,,,,
de:07340:6269:1:DB,"Hinterweidenthal, Ort",49.197196,7.750619,,,,
de:07340:6270:1:DB,"Hinterweidenthal, Ost",49.203178,7.773302,,,,
de:07340:6296:1:DB,"Busenberg, Bahnhof",49.138843,7.799847,,,,
de:07340:6297:1:DB,"Bundenthal, Bahnhof",49.102739,7.805605,,,,
de:07340:8056:1:1,"Wilgartswiesen, Bahnhof",49.209552,7.883965,,,,
de:07340:8056:1:2,"Wilgartswiesen, Bahnhof",49.209493,7.884010,,,,
de:07340:8057:1:DB,"Hauenstein, Bahnhof",49.201388,7.830201,,,,
de:07340:8073:1:DB,"Hauenstein, Bahnhof Mitte",49.199175,7.849695,,,,
de:08111:100:1:1,Stuttgart Stammheim,48.850043,9.156177,,,,
de:08111:100:2:3,Stuttgart Stammheim,48.849446,9.156025,,,,
de:08111:100:2:4,Stuttgart Stammheim,48.850214,9.156096,,,,
de:08111:102:1:1,Stuttgart Korntaler Straße,48.846732,9.157094,,de:08111:102_Parent,,
de:08111:102:2:2,Stuttgart Korntaler Straße,48.846744,9.157156,,de:08111:102_Parent,,
de:08111:102:3:2,Stuttgart Korntaler Straße,48.846041,9.157498,,de:08111:102_Parent,,
de:08111:102:3:3,Stuttgart Korntaler Straße,48.845834,9.157588,,de:08111:102_Parent,,
de:08111:102_Parent,Stuttgart Korntaler Straße,48.846732,9.157120,1,,,
de:08111:103:0:1,Stuttgart Heutingsheimer Straße,48.842440,9.159294,,,,
de:08111:103:0:2,Stuttgart Heutingsheimer Straße,48.842452,9.159339,,,,
de:08111:104:0:1,Stuttgart Wimpfener Straße,48.838266,9.160956,,,,
de:08111:104:0:2,Stuttgart Wimpfener Straße,48.838302,9.160983,,,,
de:08111:105:0:3,Stuttgart Kornwestheimer Straße,48.850947,9.166831,,,,
de:08111:105:0:4,Stuttgart Kornwestheimer Straße,48.850947,9.166831,,,,
de:08111:106:1:6,Stuttgart Zahn-Nopper-Straße,48.832933,9.164837,,de:08111:106_Parent,,
de:08111:106:2:7,Stuttgart Zahn-Nopper-Straße,48.832933,9.164837,,de:08111:106_Parent,,
de:08111:106:3:3,Stuttgart Zahn-Nopper-Straße,48.832572,9.163840,,de:08111:106_Parent,,
de:08111:106:4:4,Stuttgart Zahn-Nopper-Straße,48.832572,9.163840,,de:08111:106_Parent,,
de:08111:106_Parent,Stuttgart Zahn-Nopper-Straße,48.832578,9.164711,1,,,
de:08111:107:1:1,Stuttgart Kirchtalstraße,48.832200,9.170595,,de:08111:107_Parent,,
de:08111:107:1:2,Stuttgart Kirchtalstraße,48.832276,9.170613,,de:08111:107_Parent,,
de:08111:107:2:3,Stuttgart Kirchtalstraße,48.832200,9.170532,,de:08111:107_Parent,,
de:08111:107:2:4,Stuttgart Kirchtalstraße,48.832265,9.170514,,de:08111:107_Parent,,
de:08111:107_Parent,Stuttgart Kirchtalstraße,48.832229,9.170595,1,,,
de:08111:108:1:1,Stuttgart Zuffenhausen Rathaus,48.830585,9.174647,,,,
de:08111:108:1:2,Stuttgart Zuffenhausen Rathaus,48.830597,9.174719,,,,
de:08111:108:2:5,Stuttgart Zuffenhausen Rathaus,48.831738,9.174162,,,,
de:08111:109:0:3,Stuttgart Zuffenhausen Friedhof,48.835901,9.181465,,,,
de:08111:109:0:4,Stuttgart Zuffenhausen Friedhof,48.835901,9.181465,,,,
de:08111:110:0:1,Stuttgart Friedrichswahl,48.822903,9.172814,,,,
de:08111:110:0:2,Stuttgart Friedrichswahl,48.822903,9.172850,,,,
de:08111:111:0:1,Stuttgart Borsigstraße,48.819390,9.175446,,,,
de:08111:111:0:2,Stuttgart Borsigstraße,48.819402,9.175500,,,,
de:08111:112:0:1,Stuttgart Sieglestraße,48.816320,9.177162,,,,
de:08111:112:0:2,Stuttgart Sieglestraße,48.815320,9.177917,,,,
de:08111:114:0:3,Stuttgart Sonatenweg,48.849712,9.164756,,,,
de:08111:114:0:4,Stuttgart Sonatenweg,48.849712,9.164756,,,,
de:08111:115:1:1,Stuttgart Pragfriedhof,48.798104,9.182516,,,,
de:08111:115:1:2,Stuttgart Pragfriedhof,48.798092,9.182633,,,,
de:08111:1200:1:1,Stuttgart Zazenhausen Gleis 1,48.836203,9.199386,,,,Gleis 1
de:08111:1200:2:2,Stuttgart Zazenhausen Gleis 2,48.836179,9.199341,,,,Gleis 2
de:08111:123:0:1,Stuttgart Stafflenbergstraße,48.775382,9.191885,,,,
de:08111:123:0:2,Stuttgart Stafflenbergstraße,48.775429,9.191957,,,,
de:08111:124:0:1,Stuttgart Bubenbad,48.772961,9.194724,,,,
de:08111:124:0:2,Stuttgart Bubenbad,48.773784,9.194383,,,,
de:08111:125:0:1,Stuttgart Payerstraße,48.770196,9.195703,,,,
de:08111:125:0:2,Stuttgart Payerstraße,48.769325,9.195290,,,,
de:08111:126:1:1,Stuttgart Geroksruhe,48.766205,9.201084,,,,
de:08111:126:1:2,Stuttgart Geroksruhe,48.766241,9.201201,,,,
de:08111:129:1:1,Stuttgart Silberwald,48.747917,9.207696,,de:08111:129_Parent,,
de:08111:129:1:2,Stuttgart Silberwald,48.747971,9.207776,,de:08111:129_Parent,,
de:08111:129:2:3,Stuttgart Silberwald,48.747657,9.208343,,de:08111:129_Parent,,
de:08111:129:2:4,Stuttgart Silberwald,48.747988,9.207920,,de:08111:129_Parent,,
de:08111:129_Parent,Stuttgart Silberwald,48.747929,9.207723,1,,,
de:08111:1300:1:1,Stuttgart Sommerrain Gleis 1,48.815308,9.248569,,de:08111:1300_Parent,,Gleis 1
de:08111:1300:2:4,Stuttgart Sommerrain Gleis 4,48.815184,9.248623,,de:08111:1300_Parent,,Gleis 4
de:08111:1300:3:3,Stuttgart Sommerrain,48.815131,9.246467,,de:08111:1300_Parent,,
de:08111:1300:3:4,Stuttgart Sommerrain,48.815143,9.246467,,de:08111:1300_Parent,,
de:08111:1300_Parent,Stuttgart Sommerrain,48.815220,9.248371,1,,,
de:08111:130:1:1,Stuttgart Waldau,48.751513,9.189092,,,,
de:08111:130:1:2,Stuttgart Waldau,48.751613,9.189020,,,,
de:08111:130:2:3,Stuttgart Waldau,48.750032,9.185319,,,,
de:08111:136:1:1,Stuttgart Heumaden Gleis 1,48.738202,9.233837,,de:08111:136_Parent,,Gleis 1
de:08111:136:1:2,Stuttgart Heumaden Gleis 2,48.738096,9.233738,,de:08111:136_Parent,,Gleis 2
de:08111:136:1:3,Stuttgart Heumaden Gleis 3,48.738113,9.233765,,de:08111:136_Parent,,Gleis 3
de:08111:136:1:5,Stuttgart Heumaden,48.738528,9.233352,,de:08111:136_Parent,,
de:08111:136:1:7,Stuttgart Heumaden,48.738297,9.234295,,de:08111:136_Parent,,
de:08111:136:1:8,Stuttgart Heumaden,48.738706,9.233693,,de:08111:136_Parent,,
de:08111:136:2:3,Stuttgart Heumaden,48.738416,9.233441,,de:08111:136_Parent,,
de:08111:136:2:4,Stuttgart Heumaden,48.738339,9.233711,,de:08111:136_Parent,,
de:08111:136:2:6,Stuttgart Heumaden,48.738244,9.234052,,de:08111:136_Parent,,
de:08111:136_Parent,Stuttgart Heumaden,48.738113,9.233756,1,,,
de:08111:137:0:3,Stuttgart Isegrimweg,48.743605,9.230208,,,,
de:08111:137:0:4,Stuttgart Isegrimweg,48.743605,9.230208,,,,
de:08111:137:0:5,Stuttgart Isegrimweg,48.742651,9.235175,,,,
de:08111:13:1:1,Stuttgart Südheimer Platz,48.756647,9.143628,,de:08111:13_Parent,,
de:08111:13:2:2,Stuttgart Südheimer Platz,48.756624,9.143646,,de:08111:13_Parent,,
de:08111:13:3:3,Stuttgart Südheimer Platz (Seilbahn),48.755925,9.142173,,de:08111:13_Parent,,
de:08111:13:5:7,Stuttgart Südheimer Platz,48.755996,9.142101,,de:08111:13_Parent,,
de:08111:13_Parent,Stuttgart Südheimer Platz,48.756642,9.143628,1,,,
de:08111:1403:1:2,Stuttgart Neuwirtsh. (Porschep.) Gleis 2,48.833814,9.152144,,,,Gleis 2
de:08111:1403:2:1,Stuttgart Neuwirtsh. (Porschep.) Gleis 1,48.833873,9.152153,,,,Gleis 1
de:08111:144:1:1,Stuttgart Giebel Gleis 1,48.802618,9.087905,,de:08111:144_Parent,,Gleis 1
de:08111:144:1:2,Stuttgart Giebel Gleis 2,48.802648,9.087905,,de:08111:144_Parent,,Gleis 2
de:08111:144:2:7,Stuttgart Giebel Gleis 3,48.802701,9.088193,,de:08111:144_Parent,,Gleis 3
de:08111:144:3:3,Stuttgart Giebel,48.802802,9.087429,,de:08111:144_Parent,,
de:08111:144_Parent,Stuttgart Giebel,48.802630,9.087905,1,,,
de:08111:145:1:1,Stuttgart Salamanderweg,48.802618,9.093241,,,,
de:08111:145:1:2,Stuttgart Salamanderweg,48.802642,9.093241,,,,
de:08111:146:1:1,Stuttgart Bergheimer Hof,48.804175,9.101093,,,,
de:08111:146:1:2,Stuttgart Bergheimer Hof,48.804210,9.101075,,,,
de:08111:147:1:1,Stuttgart Wolfbusch,48.807541,9.105360,,,,
de:08111:147:1:2,Stuttgart Wolfbusch,48.807559,9.105333,,,,
de:08111:148:1:1,Stuttgart Rastatter Straße,48.810168,9.108001,,,,
de:08111:148:1:2,Stuttgart Rastatter Straße,48.810174,9.107965,,,,
de:08111:1504:1:1,Stuttgart Münster Gleis 1,48.820673,9.216149,,,,Gleis 1
de:08111:1504:2:3,Stuttgart Münster Bf,48.821342,9.215870,,,,
de:08111:151:1:1,Stuttgart Landauer Straße,48.814581,9.123973,,de:08111:151_Parent,,
de:08111:151:1:2,Stuttgart Landauer Straße,48.814622,9.123973,,de:08111:151_Parent,,
de:08111:151:2:6,Stuttgart Landauer Straße,48.814504,9.123757,,de:08111:151_Parent,,
de:08111:151:2:7,Stuttgart Landauer Straße,48.814492,9.123766,,de:08111:151_Parent,,
de:08111:151_Parent,Stuttgart Landauer Straße,48.814593,9.123955,1,,,
de:08111:152:1:1,Stuttgart Feuerbach Pfostenwäldle,48.812321,9.134681,,de:08111:152_Parent,,
de:08111:152:2:2,Stuttgart Feuerbach Pfostenwäldle,48.812031,9.136298,,de:08111:152_Parent,,
de:08111:152:3:4,Stuttgart Feuerbach Pfostenwäldle,48.811990,9.135633,,de:08111:152_Parent,,
de:08111:152:3:5,Stuttgart Feuerbach Pfostenwäldle,48.811990,9.135633,,de:08111:152_Parent,,
de:08111:152_Parent,Stuttgart Feuerbach Pfostenwäldle,48.812167,9.135525,1,,,
de:08111:153:1:1,Stuttgart Sportpark Feuerbach,48.809736,9.142334,,de:08111:153_Parent,,
de:08111:153:1:2,Stuttgart Sportpark Feuerbach,48.809771,9.142397,,de:08111:153_Parent,,
de:08111:153:1:7,Stuttgart Sportpark Feuerbach,48.810280,9.142137,,de:08111:153_Parent,,
de:08111:153:3:6,Stuttgart Sportpark Feuerbach,48.810446,9.142217,,de:08111:153_Parent,,
de:08111:153_Parent,Stuttgart Sportpark Feuerbach,48.809777,9.142406,1,,,
de:08111:154:1:1,Stuttgart Föhrich,48.810103,9.149853,,de:08111:154_Parent,,
de:08111:154:2:2,Stuttgart Föhrich,48.810138,9.149925,,de:08111:154_Parent,,
de:08111:154:3:3,Stuttgart Föhrich,48.809558,9.153285,,de:08111:154_Parent,,
de:08111:154:3:4,Stuttgart Föhrich,48.809558,9.153285,,de:08111:154_Parent,,
de:08111:154:3:5,Stuttgart Föhrich,48.809866,9.151758,,de:08111:154_Parent,,
de:08111:154:3:6,Stuttgart Föhrich,48.810144,9.150644,,de:08111:154_Parent,,
de:08111:154_Parent,Stuttgart Föhrich,48.810108,9.149880,1,,,
de:08111:156:0:3,Stuttgart Leobener Straße,48.810274,9.163031,,,,
de:08111:158:1:1,Stuttgart Maybachstraße,48.810955,9.177234,,,,
de:08111:158:2:2,Stuttgart Maybachstraße,48.810996,9.177261,,,,
de:08111:159:1:1,Stuttgart Dobelstraße,48.769746,9.185974,,de:08111:159_Parent,,
de:08111:159:1:2,Stuttgart Dobelstraße,48.769728,9.186001,,de:08111:159_Parent,,
de:08111:159:1:3,Stuttgart Dobelstraße,48.770782,9.184070,,de:08111:159_Parent,,
de:08111:159:1:4,Stuttgart Dobelstraße,48.769787,9.186208,,de:08111:159_Parent,,
de:08111:159_Parent,Stuttgart Dobelstraße,48.769746,9.185992,1,,,
de:08111:15:0:1,Stuttgart Bihlplatz,48.759312,9.150680,,,,
de:08111:15:0:2,Stuttgart Bihlplatz,48.760130,9.152198,,,,
de:08111:1604:1:1,Stuttgart Ebitzweg Gleis 1,48.803731,9.231869,,de:08111:1604_Parent,,Gleis 1
de:08111:1604:1:2,Stuttgart Ebitzweg Gleis 2,48.803713,9.231806,,de:08111:1604_Parent,,Gleis 2
de:08111:1604:3:1,Stuttgart Ebitzweg,48.803713,9.232031,,de:08111:1604_Parent,1,
de:08111:1604:3:2,Stuttgart Ebitzweg,48.803731,9.232130,,de:08111:1604_Parent,1,
de:08111:1604_Parent,Stuttgart Ebitzweg,48.803713,9.232076,1,,,
de:08111:163:1:1,Stuttgart Weinsteige,48.754960,9.174701,,de:08111:163_Parent,,
de:08111:163:1:2,Stuttgart Weinsteige,48.754954,9.174746,,de:08111:163_Parent,,
de:08111:163:2:3,Stuttgart Weinsteige,48.754906,9.174224,,de:08111:163_Parent,,
de:08111:163:2:4,Stuttgart Weinsteige,48.754906,9.174224,,de:08111:163_Parent,,
de:08111:163_Parent,Stuttgart Weinsteige,48.754960,9.174710,1,,,
de:08111:164:0:3,Stuttgart Karl-Pfaff-Straße,48.752241,9.172185,,,,
de:08111:164:0:4,Stuttgart Karl-Pfaff-Straße,48.752229,9.172383,,,,
de:08111:165:1:1,Stuttgart Haigst,48.755090,9.172239,,de:08111:165_Parent,,
de:08111:165:1:2,Stuttgart Haigst,48.755084,9.172257,,de:08111:165_Parent,,
de:08111:165:1:3,Stuttgart Haigst,48.755404,9.172473,,de:08111:165_Parent,,
de:08111:165:1:4,Stuttgart Haigst,48.755208,9.172733,,de:08111:165_Parent,,
de:08111:165_Parent,Stuttgart Haigst,48.755066,9.172257,1,,,
de:08111:170:1:1,Stuttgart Vaihinger Straße,48.727733,9.139172,,,,
